OBJECTID,FOLIO,ID,NAME,CAMPUS,ADDRESS,UNIT,CITY,ZIPCODE,PHONE,EMAIL,TYPE,GRADES,CAPACITY,ENROLLMNT,REGION,LAT,LON,POINT_X,POINT_Y,CREATED BY,CREATED DATE,MODIFIED BY,MODIFIED DATE,GlobalID,x,y,
1,1.31131E+11,7301,Miami Edison Senior High, ,6161 NW 5th Ct, ,Miami,33127,305-751-7337,,S,12-Sep,1624,630,C,25.83181,-80.2049,917698.2505,545351.6248,E316899,6/11/2020 9:42,E316899,4/3/2023 12:58,3d0a27bb-e1eb-4863-b364-5ab57441da39,-8928367.294,2978265.074,
2,3.04021E+12,441,Blue Lakes K-8 Center, ,9250 SW 52nd Ter, ,Miami-Dade,33165,305-271-7411,,E,PK-8,611,385,S,25.71817,-80.34423,872072.8125,503797.4375,E316899,6/11/2020 9:42,E316899,3/24/2023 12:34,8564d17d-3e6e-4b4e-ad0f-98b108a94e29,-8943877.701,2964217.806,
3,6.2219E+11,341,Arch Creek Elementary, ,702 NE 137th St, ,North Miami,33161,305-892-4000,,E,PK-5,606,433,N,25.90097,-80.18436,924292.9495,570530.7731,E316899,6/11/2020 9:42,E316899,3/23/2023 15:51,d2ff5da3-2864-463e-8c0c-c15de8f7d37a,-8926082.663,2986821.161,
4,3.04923E+12,4741,Royal Green Elementary, ,13047 SW 47th St, ,Miami-Dade,33175,305-221-4452,,E,PK-5,722,441,S,25.7223,-80.40552,851886.6421,505201.0369,E316899,6/11/2020 9:42,E316899,4/3/2023 15:24,ff68e484-3bfa-4130-9ae7-c185959f21de,-8950700.529,2964727.462,
5,3.0692E+12,6761,Redland Middle, ,16001 SW 248th St, ,Miami-Dade,33031,305-247-6112,,M,8-Jun,1253,663,S,25.53672,-80.45208,836831.833,437688.2399,E316899,6/11/2020 9:42,E316899,4/3/2023 15:04,faca97b3-df34-4518-b597-b348a156fc7a,-8955885.226,2941815.074,
6,4.2026E+11,4241,Palm Lakes Elementary, ,7450 W 16th Ave, ,Hialeah,33014,305-823-6970,,E,PK-5,978,598,N,25.89043,-80.3163,880940.9195,566452.7794,E316899,6/11/2020 9:42,E316899,4/3/2023 14:40,895356c5-913b-4b5c-b577-8c3fddeb1938,-8940769.376,2985517.18,
7,3.4129E+11,6741,Ponce de Leon Middle, ,5801 Augusto St, ,Coral Gables,33146,305-661-1611,,M,8-Jun,1287,902,C,25.71643,-80.27195,895870.8651,503289.9836,E316899,6/11/2020 9:42,E316899,4/3/2023 14:54,fb72adbe-a8da-474a-a675-80e653ea284a,-8935832.63,2964002.905,
8,1.12231E+12,3341,Miami Shores Elementary, ,10351 NE 5th Ave, ,Miami Shores,33138,305-758-5525,,E,PK-5,714,567,C,25.87037,-80.18724,923414.1353,559404.8329,E316899,6/11/2020 9:42,E316899,4/3/2023 13:08,f3e4e48f-f940-4f0a-97f3-d6ae3cbb890f,-8926403.567,2983035.646,
9,3.0311E+12,1681,Lillie C. Evans K-8 Center, ,1895 NW 75th St, ,Miami-Dade,33147,305-691-4973,,E,PK-8,600,330,C,25.8434,-80.22907,909718.9074,549518.1436,E316899,6/11/2020 9:42,E316899,4/3/2023 12:35,9ce54253-2a99-415f-9440-b4c089fea8e6,-8931059.327,2979699.011,
10,1.31361E+11,9015,School Board Adm - Main Building, ,1450 NE 2nd Ave, ,Miami,33132,305-995-1106,,A,0,0,0, ,25.78904,-80.19102,922353.6404,529835.368,E316899,6/11/2020 9:42,E316899,4/4/2023 15:18,60b8ea29-0651-44f3-ba43-6dd90fedb90f,-8926824.146,2972976.836,
11,3.04926E+12,7532,Miami Sunset Adult Education, ,13125 SW 72nd St, ,Miami-Dade,33183,305-365-4255,,O,0,0,0, ,25.70156,-80.40422,852348.1958,497666.1968,E316899,6/11/2020 9:42,E316899,4/3/2023 13:12,f8358238-ecf2-4b8b-b186-57411f7fe66a,-8950555.965,2962165.402,
12,1.4116E+11,7841,English Center, ,3501 SW 28th St, ,Miami,33133,305-445-7731,,O,0,0,0,AC,25.73991,-80.25164,902507.5625,511859.4999,E316899,6/11/2020 9:42,E316899,3/31/2023 15:40,57378787-077d-4c17-ba2e-75d79020a2ff,-8933572.416,2966903.666,
13,3.05922E+12,2151,Jack D. Gordon  Elementary, ,14600 Country Walk Dr, ,Miami-Dade,33186,305-234-4805,,E,PK-5,1051,848,S,25.63004,-80.42992,843996.7712,471633.3443,E316899,6/11/2020 9:42,E316899,4/3/2023 11:45,0a8c09da-79b4-4356-8fe5-36e3fd12fb93,-8953417.146,2953331.792,
14,1.4103E+11,9001,Former Region Office/Warehouse,South Central Regional Office,2201 SW 4th St, ,Miami,33135,305-642-7555,,A,0,0,0, ,25.76896,-80.23125,909160.1869,522455.6599,E316899,6/11/2020 9:42,E316899,3/31/2023 15:49,4623c503-084a-4371-9552-9d519f39fb91,-8931301.924,2970493.798,
15,2.33209E+12,5481,Treasure Island Elementary, ,7540 E Treasure Dr, ,North Bay Village,33141,305-865-3141,,E,PK-5,915,411,N,25.84661,-80.14668,936809.4904,550850.8387,E316899,6/11/2020 9:42,E316899,4/5/2023 11:41,dc665da8-7a69-4be4-9019-2d1906babf5b,-8921887.827,2980095.551,
16,3.02133E+12,7061,School For Advanced Studies North,Room 111,11380 NW 27th Ave,Room 1111,Miami-Dade,33167,305-237-1089,,S,12-Nov,0,127,S,25.87793,-80.24566,904190.9107,562038.3003,E316899,6/11/2020 9:42,E316899,4/4/2023 15:19,da03bf59-5461-457d-a51f-fdc9599fe827,-8932905.92,2983971.074,
17,2.3202E+11,321,Biscayne Beach Elementary, ,800 77th St, ,Miami Beach,33141,305-868-7727,,E,PK-5,822,577,N,25.86171,-80.12652,943402.6094,556384.4277,E316899,6/11/2020 9:42,E316899,3/24/2023 12:32,d9f07190-3af1-4a80-aa02-2875809e949c,-8919643.958,2981963.971,
18,3.05936E+12,8911,Robert Morgan Educational Center and Technical College, ,18180 SW 122nd Ave, ,Miami-Dade,33177,305-253-9920,,O,0,0,0,S,25.59915,-80.39007,857177.0096,460464.8771,E316899,6/11/2020 9:42,E316899,4/3/2023 15:08,4837cef6-d7da-4cd9-abd6-1727ffe79a78,-8948981.514,2949518.357,
19,1.3231E+11,7001,Miami-Dade Online Academy, ,1501 NE 2nd Ave,336,Miami,33132,305-995-1257,,S,K-12,0,181,AC,25.78977,-80.19044,922543.4829,530100.6365,E316899,6/11/2020 9:42,E316899,3/22/2023 15:07,6f5cb5f2-716c-4369-a812-7b1a8aac12cc,-8926759.373,2973066.667,
20,6.2216E+11,7048,Alonzo and Tracy Mourning Senior High,Biscayne Bay,2601 NE 151st St, ,North Miami,33160,305-919-2000,,S,12-Sep,1445,1582,N,25.91647,-80.14704,936525.8235,576244.878,E316899,6/11/2020 9:42,E316899,3/23/2023 15:26,b66707b6-0673-4731-a3fb-1f125841ffd7,-8921927.979,2988740.156,
21,1.31361E+11,5931,Phillis Wheatley Elementary, ,1801 NW 1st Pl, ,Miami,33136,305-573-2638,,E,PK-5,620,179,C,25.79353,-80.19817,919992.0473,531453.4826,E316899,6/11/2020 9:42,E316899,4/3/2023 14:50,84916aff-0ca7-49e8-8d0c-2f971af555a5,-8927619.712,2973532.139,
22,1.31361E+11,9606,Anna Brenner Meyers Telecommunication Complex, ,172 NE 15th St, ,Miami,33132,305-995-1717,,A,0,0,0, ,25.78929,-80.19188,922070.22,529922.4303,E316899,6/11/2020 9:42,E316899,3/23/2023 15:50,b8f19c3d-f962-4755-bfbd-611a137373d9,-8926919.843,2973007.041,
23,3.04922E+12,271,Bent Tree Elementary, ,4861 SW 140th Ave, ,Miami-Dade,33175,305-221-0461,,E,PK-5,641,410,S,25.72133,-80.42071,846884.174,504827.273,E316899,6/11/2020 9:42,E316899,3/24/2023 12:31,db9d05f5-537d-4b9b-8ff2-cde27907c928,-8952392.492,2964607.957,
24,4.2025E+11,7132,Hialeah-Miami Lakes Adult Education, ,7977 W 12th Ave, ,Hialeah,33014,305-823-1330,,O,0,0,0, ,25.89496,-80.30732,883882.8746,568114.6247,E316899,6/11/2020 9:42,E316899,3/17/2023 15:39,6793a04c-270f-4d17-8674-9cb54945572c,-8939770.302,2986077.683,
25,3.03109E+12,521,Broadmoor Elementary, ,3401 NW 83rd St, ,Miami-Dade,33147,305-691-0861,,E,PK-5,708,528,C,25.84959,-80.25367,901613.6873,551721.1872,E316899,6/11/2020 9:42,E316899,3/24/2023 12:46,9c1494c7-27bb-4cb4-891c-afe1a98a62d7,-8933798.275,2980464.635,
26,3.04921E+12,4691,Jane S. Roberts K-8 Center, ,14850 Cottonwood Cir, ,Miami-Dade,33185,305-220-8254,,E,PK-8,1053,649,S,25.7165,-80.4332,842777.2438,503053.9086,E316899,6/11/2020 9:42,E316899,4/3/2023 11:56,db972452-7268-474c-b66d-8fd69d6055b5,-8953783.673,2964011.152,
27,3.5302E+12,5101,John I. Smith K-8 Center, ,10415 NW 52nd St, ,Doral,33178,305-406-0220,,E,PK-8,1118,1025,C,25.82051,-80.36469,865152.0581,540960.3511,E316899,6/11/2020 9:42,E316899,4/3/2023 12:05,e9b59fb6-2edb-477b-85f8-050aee6ae240,-8946157.033,2976868.181,
28,3.42117E+12,8101,Jan Mann Opportunity School, ,16101 NW 44th Ct, ,Miami Gardens,33054,305-625-0855,,ALT,12-Jun,393,62,AC,25.92121,-80.27275,895196.3663,577717.9778,E316899,6/11/2020 9:42,E316899,4/3/2023 11:55,687a4f35-9e25-490e-85ec-56b6f2c31e1e,-8935921.557,2989326.585,
29,3.02106E+12,5991,Charles David Wyche Jr. Elementary, ,5241 NW 195th Dr, ,Miami-Dade,33055,305-628-5776,,E,PK-5,937,555,N,25.94993,-80.28808,890102.5246,588127.2887,E316899,6/11/2020 9:42,E316899,3/24/2023 13:00,3e278a3f-4787-4687-8552-09349f87587f,-8937627.536,2992881.091,
30,3.04909E+12,6052,Miami Arts Studio 6-12 at Zelda Glazer, ,15015 SW 24th St, ,Miami-Dade,33185,305-485-2323,,S,PK6-12,1671,1779,S,25.7441,-80.43914,840783.8509,513075.5357,E316899,6/11/2020 9:42,E316899,3/22/2023 15:06,7117df32-eb37-4aca-b722-2a36931f7af1,-8954443.238,2967421.281,
31,3.42115E+12,4541,Rainbow Park Elementary, ,15355 NW 19th Ave, ,Miami Gardens,33054,305-688-4631,,E,PK-5,560,225,N,25.91464,-80.23187,908645.0411,575405.5385,E316899,6/11/2020 9:42,E316899,4/3/2023 15:02,a2aa657b-31c9-4e3f-833d-be150b37f941,-8931371.501,2988513.064,
32,3.06005E+12,261,Bel-Aire Elementary, ,10205 SW 194th St, ,Cutler Bay,33157,305-233-5401,,E,PK-5,616,334,S,25.58789,-80.35582,868483.535,456427.4863,E316899,6/11/2020 9:42,E316899,3/24/2023 12:29,163cb4bc-8b7a-4519-b7fa-c2e9070c2741,-8945169.19,2948129.102,
33,1.31271E+11,111,Maya Angelou Elementary, ,1850 NW 32nd St, ,Miami,33142,305-636-3480,,E,PK-5,713,679,C,25.80531,-80.22677,910555.125,535676.9371,E316899,6/11/2020 9:42,E316899,4/3/2023 12:47,59de3e33-ec9d-40e7-94a7-3fb537cf515a,-8930803.854,2974988.024,
34,3.07905E+12,7701,South Dade Senior High, ,28401 SW 167th Ave, ,Miami-Dade,33030,305-247-4244,,S,12-Sep,3302,3085,S,25.50137,-80.46048,834113.9586,424826.9327,E316899,6/11/2020 9:42,E316899,4/4/2023 15:28,a83f03a7-3b4f-4c4a-aa5a-489cf7b15206,-8956820.382,2937453.739,
35,3.04021E+12,7741,Southwest Miami Senior High, ,8855 SW 50th Ter, ,Miami-Dade,33165,305-274-0181,,S,12-Sep,2845,2436,S,25.72204,-80.33815,874063.9528,505214.0204,E316899,6/11/2020 9:42,E316899,4/4/2023 15:37,07feb717-8d63-4ff1-9bf5-e7e0298734cb,-8943202.099,2964696,
36,3.4108E+11,961,Coral Gables Preparatory Academy,Main Campus,105 Minorca Ave, ,Coral Gables,33134,305-448-1731,,E,PK-8,479,0,C,25.75414,-80.25782,900445.6494,517020.0001,E316899,6/11/2020 9:42,E316899,3/24/2023 13:08,612b93bf-5936-45f8-9032-d93e465f3f7b,-8934259.84,2968662.315,
37,3.06018E+12,4461,Pine Villa Elementary, ,21799 SW 117th Ct, ,Miami-Dade,33170,305-258-5366,,E,PK-5,834,262,S,25.56442,-80.38094,860246.4857,447855.9442,E316899,6/11/2020 9:42,E316899,4/3/2023 14:52,e75abafc-56e3-49d9-be15-5544a3fedfba,-8947964.62,2945231.929,
38,2.72033E+12,7191,Hialeah Gardens Senior High, ,11700 Hialeah Gardens Blvd, ,Hialeah Gardens,33018,305-698-5000,,S,12-Sep,2599,2795,N,25.87968,-80.35386,868608.4354,562482.7698,E316899,6/11/2020 9:42,E316899,3/17/2023 15:55,6b68370a-b0a5-4301-91ff-d5f38b09c21c,-8944951.618,2984186.984,
39,3.53007E+12,122,Dr. Rolando Espinosa K-8 Center, ,11250 NW 86th St, ,Doral,33178,305-889-5757,,E,PK-8,1381,823,C,25.85127,-80.3804,859936.3123,552116.1834,E316899,6/11/2020 9:42,E316899,3/24/2023 14:26,96108aef-713e-4305-95c7-8c354834e33a,-8947904.201,2980672.781,
40,3.42108E+12,681,Carol City Elementary, ,4375 NW 173rd Dr, ,Miami Gardens,33055,305-621-0509,,E,PK-5,637,298,N,25.93335,-80.27156,895561.7817,582132.5209,E316899,6/11/2020 9:42,E316899,3/24/2023 12:52,75d5ad9e-99f0-45ac-a83e-5f55913f0b74,-8935789.491,2990829.196,
41,2.72033E+12,2371,West Hialeah Gardens Elementary, ,11990 NW 92nd Ave, ,Hialeah Gardens,33018,305-818-4000,,E,PK-5,1241,1153,N,25.88184,-80.34812,870496.4014,563277.5236,E316899,6/11/2020 9:42,E316899,4/5/2023 11:45,882a110c-ca24-428b-8507-a39d3ceaaeb0,-8944311.097,2984454.347,
42,1.3124E+11,4961,Shadowlawn Elementary, ,149 NW 49th St, ,Miami,33127,305-758-3673,,E,PK-5,398,131,C,25.82096,-80.19877,919734.0221,541422.076,E316899,6/11/2020 9:42,E316899,4/4/2023 15:24,98d727ac-c9fe-4f04-8c51-e8f1151fda6a,-8927686.47,2976923.871,
43,1.411E+11,5001,Shenandoah Elementary, ,1023 SW 21st Ave, ,Miami,33135,305-643-4433,,E,PK-5,968,829,C,25.76279,-80.22818,910184.1021,520219.4031,E316899,6/11/2020 9:42,E316899,4/4/2023 15:25,8545de4a-8005-4e3b-a4a1-16963429b6ad,-8930960.031,2969731.27,
44,3.05027E+12,6861,Southwood Middle, ,16301 SW 80th Ave, ,Palmetto Bay,33157,305-251-5361,,M,8-Jun,1696,1090,S,25.61952,-80.32207,879548.0924,467978.7974,E316899,6/11/2020 9:42,E316899,4/4/2023 15:38,98919166-8ec4-4e10-b1c7-51fbddfdede8,-8941412.397,2952033.503,
45,3.42102E+12,3701,Norland Elementary, ,19340 NW 8th Ct, ,Miami Gardens,33169,305-652-6074,,E,PK-5,708,583,N,25.95185,-80.21636,913664.5299,588961.3014,E316899,6/11/2020 9:42,E316899,4/3/2023 13:22,a1f7a83b-ed2e-4176-90b2-cfc8ffe03335,-8929644.202,2993119.319,
46,3.0592E+12,125,Norma Butler Bossard Elementary, ,15950 SW 144th St, ,Miami-Dade,33196,305-254-5200,,E,PK-5,1032,1059,S,25.63201,-80.45262,836514.9035,472316.7924,E316899,6/11/2020 9:42,E316899,4/3/2023 13:23,d40a849d-e126-41e4-bb5d-9dbb8bf81abc,-8955943.988,2953574.688,
47,1.07812E+12,4611,Redondo Elementary, ,18480 SW 304th St, ,Homestead,33030,305-247-5943,,E,PK-3,719,514,S,25.48335,-80.49146,823922.3697,418237.1336,E316899,6/11/2020 9:42,E316899,4/3/2023 15:04,7fc315a9-1201-4ef7-9139-7a2672280e5b,-8960268.513,2935231.267,
48,3.04911E+12,6901,W. R. Thomas Middle, ,13001 SW 26th St, ,Miami-Dade,33175,305-995-3800,,M,8-Jun,959,664,S,25.74479,-80.40559,851823.2332,513375.6289,E316899,6/11/2020 9:42,E316899,4/5/2023 11:44,019b7f5c-ed6a-408a-a9cf-bc85ffbf45b6,-8950709.518,2967506.883,
49,3.04024E+12,1761,David Fairchild Elementary, ,5757 SW 45th St, ,Miami-Dade,33155,305-665-5483,,E,PK-5,710,481,C,25.7296,-80.28739,890759.7813,508046.4057,E316899,6/11/2020 9:42,E316899,3/24/2023 14:03,832202f0-8d86-4ded-9d01-56c6a38dbcfc,-8937551.951,2965629.366,
50,3.0502E+12,6781,Richmond Heights Middle, ,15015 SW 103rd Ave, ,Miami-Dade,33176,305-238-2316,,M,8-Jun,973,448,S,25.62968,-80.3596,867164.2902,471610.609,E316899,6/11/2020 9:42,E316899,4/3/2023 15:07,d7b8fa9c-ea93-4b90-839c-a76190f6a739,-8945589.968,2953288.107,
51,3.03128E+12,8141,Juvenile Justice Center, ,3300 NW 27th Ave, ,Miami-Dade,33142,305-638-5054,,ALT,12-Jun,278,65,AC,25.80638,-80.24054,906027.5886,536039.7464,E316899,6/11/2020 9:42,E316899,4/3/2023 12:08,c41c39f3-7f3f-49ee-867b-4b99fed33ef4,-8932334.98,2975120.415,
52,1.31251E+11,331,Chapman Partnership Early Childhood Center North, ,1550 North Miami Ave, ,Miami,33136,305-329-3057,,E,PK,0,44,AC,25.78993,-80.1952,920976.6876,530149.5625,E316899,6/11/2020 9:42,E316899,3/24/2023 12:58,4145c6ce-f2ec-4c36-bf21-fc457abff1cf,-8927289.303,2973086.575,
53,2.3234E+11,7202,Miami Beach Adult & Community Education Center, ,1424 Drexel Ave, ,Miami Beach,33139,305-531-0451,,O,0,0,0,AC,25.78641,-80.13327,941363.3449,529000.701,E316899,6/11/2020 9:42,E316899,4/3/2023 12:53,ef92b5f7-83c2-4edf-ad0f-71ce4472e827,-8920395.311,2972651.804,
54,6.2229E+11,561,W.J. Bryan Elementary, ,1201 NE 125th St, ,North Miami,33161,305-891-0602,,E,PK-5,762,627,N,25.89129,-80.17347,927898.8124,567034.1751,E316899,6/11/2020 9:42,E316899,4/5/2023 11:45,d504e043-16b9-498e-99ab-eb275ba004b8,-8924869.159,2985623.102,
55,3.04016E+12,4721,Rockway Elementary, ,2790 SW 93rd Ct, ,Miami-Dade,33165,305-221-1192,,E,PK-5,554,361,C,25.74404,-80.34637,871318.6298,513195.2608,E316899,6/11/2020 9:42,E316899,4/3/2023 15:13,0883c6cf-7ec6-4499-b494-ff438659ef05,-8944116.952,2967414.193,
56,3.04926E+12,7531,Miami Sunset Senior High, ,13125 SW 72nd St, ,Miami-Dade,33183,305-385-4255,,S,12-Sep,1957,1086,S,25.70156,-80.40422,852348.1958,497666.1968,E316899,6/11/2020 9:42,E316899,4/3/2023 13:13,5b4e0589-c594-4ebe-bc7e-9bfc89a0d91d,-8950555.965,2962165.402,
57,3.05933E+12,6001,Herbert A. Ammons Middle, ,17475 SW 157th Ave, ,Miami-Dade,33187,305-971-0158,,M,8-Jun,747,980,S,25.60436,-80.44579,838803.9984,462278.8358,E316899,6/11/2020 9:42,E316899,4/10/2023 13:25,5e1aa080-32c0-4bc6-8854-d930afb5daa3,-8955184.773,2950161.819,
58,6.2219E+11,3941,North Miami Elementary, ,655 NE 145th St, ,North Miami,33161,305-949-0998,,E,PK-5,764,451,N,25.90889,-80.18619,923673.3624,573407.3384,E316899,6/11/2020 9:42,E316899,4/3/2023 13:33,4b4ef884-d951-4f8a-bd31-f168e9c16278,-8926286.414,2987801.837,
59,3.03116E+12,8017,Educational Alternative Outreach Program, ,6300 NW 27th Ave, ,Miami-Dade,33147,305-694-4444,,ALT,0,0,0,AC,25.83249,-80.2417,905591.4987,545527.6568,E316899,6/11/2020 9:42,E316899,3/24/2023 15:57,c27c8abd-3365-418b-a69f-c8414e4c4364,-8932464.022,2978349.305,
60,3.04934E+12,2651,Kendale Lakes Elementary, ,8000 SW 142nd Ave, ,Miami-Dade,33183,305-385-2575,,E,PK-5,882,722,S,25.69231,-80.42572,845281.1872,494270.6561,E316899,6/11/2020 9:42,E316899,4/3/2023 12:09,bec75380-33df-42d9-9ce4-662ef2708718,-8952950.001,2961021.917,
61,4.2034E+11,5021,Ben Sheppard Elementary, ,5700 W 24th Ave, ,Hialeah,33016,305-556-2204,,E,PK-5,1088,936,N,25.87422,-80.33175,875889.7431,560535.9029,E316899,6/11/2020 9:42,E316899,3/24/2023 12:29,25d4d588-dddf-4c53-91f5-69d195707afb,-8942489.836,2983511.87,
62,3.0503E+12,9230,Transportation Center Administrative Offices,Main Office,15401 SW 117th Ave, ,Miami-Dade,33177,305-234-3365,,A,0,0,0, ,25.62436,-80.38095,860136.9648,469642.154,E316899,6/11/2020 9:42,E316899,4/5/2023 11:32,355a6f22-b992-43b9-a122-dba697e3781b,-8947967.265,2952630.782,
63,3.06924E+12,3621,Coconut Palm K-8 Academy, ,24400 SW 124th Ave, ,Miami-Dade,33032,305-257-0500,,E,PK-8,1499,1257,S,25.54131,-80.39341,856171.244,439440.6848,E316899,6/11/2020 9:42,E316899,3/24/2023 13:06,f3fb0f88-93d6-4fa6-91df-153259182a28,-8949353.679,2942381.429,
64,3.03111E+12,9221,Maintenance Operations Plant Operations Center, ,11035 SW 84th St, ,Miami-Dade,33173,305-995-1550,,A,0,0,0, ,25.69197,-80.37176,863049.3089,494229.9805,E316899,6/11/2020 9:42,E316899,4/3/2023 12:41,f3a9c89d-8a9b-4223-9ba3-fde5f0eac257,-8946943.93,2960980.617,
65,3.04021E+12,7742,Southwest Miami Adult Center, ,8855 SW 50th Ter, ,Miami-Dade,33165,305-274-0181,,O,0,0,0, ,25.72204,-80.33815,874063.9528,505214.0204,E316899,6/11/2020 9:42,E316899,4/4/2023 15:36,6cb5a457-5584-40fe-abb8-b0569f74dc3b,-8943202.099,2964696,
66,3.04016E+12,6821,Rockway Middle, ,9393 SW 29th Ter, ,Miami-Dade,33165,305-221-8212,,M,8-Jun,1374,1000,C,25.74247,-80.34768,870890.316,512623.4041,E316899,6/11/2020 9:42,E316899,4/3/2023 15:14,939ed623-9078-47e4-9afa-8e73d02d0ff9,-8944262.752,2967220.472,
67,3.412E+11,721,George Washington Carver Elementay, ,238 Grand Ave, ,Coral Gables,33133,305-443-5286,,E,PK-5,486,556,C,25.72722,-80.25896,900123.5835,507235.0667,E316899,6/11/2020 9:42,E316899,3/31/2023 15:54,658060de-a8d4-437e-a022-4b261ce58f94,-8934387.349,2965336.002,
68,3.42115E+12,641,Bunche Park Elementary, ,16001 Bunche Park School Dr, ,Miami Gardens,33054,305-621-1469,,E,PK-5,388,247,N,25.9204,-80.23837,906496.4382,577488.187,E316899,6/11/2020 9:42,E316899,3/24/2023 12:48,738425dc-ebf1-4b6b-b7ab-209a7b51df28,-8932095.025,2989226.482,
69,3.41136E+12,6023,Andover Middle, ,121 NE 207th St, ,Miami Gardens,33179,305-654-2727,,M,8-Jun,1243,455,N,25.96623,-80.19921,919269.5434,594222.1188,E316899,6/11/2020 9:42,E316899,3/23/2023 15:47,c22efdc7-8cca-4343-b769-17390b80c8f6,-8927734.584,2994899.699,
70,3.42111E+12,4881,Scott Lake Elementary, ,1160 NW 175th St, ,Miami Gardens,33169,305-624-1443,,E,PK-5,678,468,N,25.93429,-80.22,912506.2497,582571.312,E316899,6/11/2020 9:42,E316899,4/4/2023 15:23,c6b43c09-2794-4aaf-8eef-3e0cdf19f965,-8930049.467,2990945.405,
71,3.53007E+12,7241,Ronald W. Reagan/Doral Senior High, ,8600 NW 107th Ave, ,Doral,33178,305-805-1900,,S,12-Sep,1776,1566,C,25.85259,-80.37145,862873.9827,552607.2081,E316899,6/11/2020 9:42,E316899,4/3/2023 15:23,0a16c416-8f2c-4bbb-bdad-78e186686acf,-8946909.068,2980835.142,
72,1.4104E+11,121,Auburndale Elementary, ,3255 SW 6th St, ,Miami,33135,305-445-3587,,E,PK-5,1037,746,C,25.76693,-80.2481,903617.6258,521688.5495,E316899,6/11/2020 9:42,E316899,3/23/2023 15:54,93d7eb69-d09d-440a-820f-dd7f50b9b4d1,-8933178.092,2970243.793,
73,3.412E+11,6071,George Washington Carver Middle, ,4901 Lincoln Dr, ,Coral Gables,33133,305-444-7388,,M,8-Jun,880,957,C,25.7259,-80.25896,900126.7028,506753.9234,E316899,6/11/2020 9:42,E316899,3/31/2023 15:54,255816e5-6d0f-4ba2-a300-b61d1e31d304,-8934387.208,2965172.424,
74,1.31251E+11,2351,Eneida Massas Hartner Elementary, ,401 NW 29th St, ,Miami,33127,305-573-8181,,E,PK-5,713,390,C,25.80407,-80.20201,918704.6126,535274.2824,E316899,6/11/2020 9:42,E316899,3/24/2023 15:57,fac1b284-532e-4c9c-b909-e80ffc48fa8d,-8928047.417,2974834.5,
75,1.41031E+11,801,Citrus Grove K-8 Center, ,2153 NW 3rd St, ,Miami,33125,305-642-5055,,E,PK-8,2383,0,C,25.77657,-80.23009,909524.6786,525223.6555,E316899,6/11/2020 9:42,E316042,6/25/2024 15:27,aaadfb78-4799-4b1b-8584-f26df002d710,-8931173.17,2971434.451,
76,3.02204E+12,4061,Ojus Elementary, ,18600 W Dixie Hwy, ,Miami-Dade,33180,305-931-4881,,E,PK-5,1030,798,N,25.94785,-80.14934,935696.0522,587644.1768,E316899,6/11/2020 9:42,E316899,4/3/2023 13:37,b9ff7151-3071-438a-b141-70785a03663d,-8922183.913,2992623.885,
77,1.3122E+11,8012,Pace Center for Girls, ,1400 NW 36th St, ,Miami-Dade,33142,786-254-2460,,O,12-Jun,0,33,AC,25.8094,-80.22019,912713.3752,537175.1873,E316899,6/11/2020 9:42,E316042,6/26/2024 10:47,0b0ecaeb-be64-49ec-a92b-958711342fb5,-8930070.635,2975493.382,
78,4.31061E+11,7111,Hialeah Senior High, ,251 E 47th St, ,Hialeah,33013,305-822-1500,,S,12-Sep,3315,1744,N,25.86544,-80.27776,893660.8747,557438.2494,E316899,6/11/2020 9:42,E316899,3/17/2023 15:58,1f1c4122-2f38-456a-91e6-375e7a2a5e13,-8936479.393,2982425.484,
79,3.0503E+12,9235,Transportation Center Southwest,Southwest,15501 SW 117th Ave, ,Miami-Dade,33177,305-234-0046,,A,0,0,0, ,25.62386,-80.38072,860213.9983,469460.9393,E316899,6/11/2020 9:42,E316899,4/5/2023 11:37,7c5b0464-0fc2-4015-912f-8cf87382a18f,-8947941.526,2952569.103,
80,1.3114E+11,2501,Holmes Elementary, ,1175 NW 67th St, ,Miami,33150,305-836-3421,,E,PK-5,572,379,C,25.83604,-80.21618,913975.3285,546866.5947,E316899,6/11/2020 9:42,E316899,3/17/2023 16:00,eb0065c0-1f34-4cde-9475-959e06a196f8,-8929624.115,2978788.171,
81,3.02219E+12,2911,Linda Lentin K-8 Center, ,14312 NE 2nd Ct, ,Miami-Dade,33161,305-891-4011,,E,PK-8,1072,667,N,25.90685,-80.19435,920996.0005,572648.8124,E316899,6/11/2020 9:42,E316899,4/3/2023 12:35,7e5c926c-99e6-4cdc-8218-70897ec57acd,-8927194.625,2987549.209,
82,3.03103E+12,8121,C.O.P.E. Center North, ,9950 NW 19th Ave, ,Miami-Dade,33147,305-836-3300,,ALT,12-Jul,378,47,AC,25.86577,-80.23046,909216.1249,557646.6246,E316899,6/11/2020 9:42,E316899,3/24/2023 12:49,d59ccf5b-e3b3-4fa3-a482-a6f20ad966cd,-8931213.377,2982466.336,
83,5.312E+11,9028,Federal & State Compliance Office, ,489 East Dr, ,Miami Springs,33166,305-883-5323,,A,0,0,0, ,25.81112,-80.27255,895486.0221,537703.941,E316899,6/11/2020 9:42,E316899,3/17/2023 15:21,f6892cd7-a8d3-4682-80fc-a313781efd9e,-8935898.527,2975706.83,
84,3.53019E+12,9574,Central Region Office,Former Doral Middle,5005 NW 112th Ave, ,Doral,33178,305-499-5050,,A,0,0,0, ,25.81949,-80.37661,861234.649,540569.7304,E316899,6/11/2020 9:42,E316899,11/18/2021 13:42,eaad53d1-b4a5-409e-9e39-b56e52eb78f0,-8947483.273,2976741.654,
85,3.05005E+12,2641,Kendale Elementary, ,10693 SW 93rd St, ,Miami-Dade,33176,305-274-2735,,E,PK-5,724,374,S,25.68314,-80.36618,864904.2367,491028.1166,E316899,6/11/2020 9:42,E316899,4/3/2023 12:09,384f5de9-5922-44d0-95f1-23cec16ff38c,-8946322.106,2959889.409,
86,3.04015E+12,201,Banyan Elementary, ,3060 SW 85th Ave, ,Miami-Dade,33155,305-221-4011,,E,PK-5,540,340,C,25.74118,-80.33393,875417.6875,512176.5313,E316899,6/11/2020 9:42,E316899,3/24/2023 11:34,5af9b888-bd45-4106-b689-682b498c7e50,-8942732.507,2967060.836,
87,4.2028E+11,5051,Ernest R. Graham K-8 Center, ,7330 W 32nd Ave, ,Hialeah,33018,305-825-2122,,E,PK-8,1489,976,N,25.88798,-80.34864,870312.3896,565507.9297,E316899,6/11/2020 9:42,E316899,3/31/2023 15:40,82db33f6-c5a8-499a-9e1d-ca8088f22a1f,-8944369.648,2985213.931,
88,1.54012E+12,5441,Sylvania Heights Elementary, ,5901 SW 16th St, ,West Miami,33155,305-266-3511,,E,PK-5,826,524,C,25.75711,-80.29249,889027.6265,518036.5835,E316899,6/11/2020 9:42,E316899,4/4/2023 15:41,37b57ea7-1e20-4048-a090-8cbdc27e7ad5,-8938119.521,2969029.348,
89,3.05032E+12,3541,Robert Russa Moton Elementary, ,18050 Homestead Ave, ,Miami-Dade,33157,305-235-3612,,E,K-5,679,177,S,25.60216,-80.35587,868443.2862,461612.7445,E316899,6/11/2020 9:42,E316899,4/3/2023 15:11,abf6cb76-d956-4201-869a-7834f061d9c2,-8945174.278,2949890.102,
90,1.4111E+11,1121,Coral Way K-8 Center, ,1950 SW 13th Ave, ,Miami,33145,305-854-0515,,E,PK-8,1374,1053,C,25.75368,-80.21779,913626.3647,516930.7178,E316899,6/11/2020 9:42,E316899,3/24/2023 13:13,58fe3c5f-469d-46a2-b349-1f0dffb26693,-8929802.403,2968606.047,
91,3.02125E+12,2241,Gratigny Elementary, ,11905 N Miami Ave, ,Miami-Dade,33168,305-681-6685,,E,PK-5,686,423,N,25.88507,-80.198,919844.1853,564723.2388,E316899,6/11/2020 9:42,E316899,3/31/2023 15:58,e26dc49c-d1ec-44ee-ae0a-a7f75e81aa0c,-8927601.064,2984853.437,
92,1.31131E+11,9913,MDCPS Police Center, ,6100 NW 2nd Ave, ,Miami,33127,305-757-7708,,A,0,0,0, ,25.83184,-80.20071,919071.1147,545370.1021,E316899,6/11/2020 9:42,E316899,4/3/2023 12:47,c53bea96-e63a-456a-a9c5-0cab32ab97da,-8927902.665,2978268.529,
93,3.04929E+12,1691,Christina M. Eve PLC - N,PLC-N,16251 SW 72nd St, ,Miami-Dade,33193,305-383-9392,,PLC,0,0,0,S,25.6991,-80.4551,835592.8117,496697.9787,E316899,6/11/2020 9:42,E316899,3/24/2023 13:03,485ee9a4-10c8-4dab-b47d-267c9e353899,-8956221.597,2961860.888,
94,3.0311E+12,8139,D.A. Dorsey Technical College, ,7100 NW 17th Ave, ,Miami-Dade,33147,305-693-2490,,O,0,0,0,C,25.83956,-80.22567,910849.2357,548129.0077,E316899,6/11/2020 9:42,E316899,3/24/2023 13:17,c6fea7c6-5f4a-47c4-b85a-de67018dca71,-8930679.542,2979224.044,
95,3.42105E+12,3241,Miami Gardens Elementary, ,4444 NW 195th St, ,Miami Gardens,33055,305-625-5321,,E,PK-5,412,262,N,25.95033,-80.27531,894295.894,588298.0157,E316899,6/11/2020 9:42,E316899,4/3/2023 12:58,fa2ce6fb-cd37-4e49-8bfa-1d23f639b975,-8936206.698,2992931.405,
96,3.42115E+12,6591,North Dade Center Middle, ,1840 NW 157th St, ,Miami Gardens,33054,305-624-8415,,M,8-Jun,797,441,N,25.91677,-80.23161,908727.6874,576180.7395,E316899,6/11/2020 9:42,E316899,4/3/2023 13:30,9512d413-5a49-4633-a7ee-dab6a91832f0,-8931341.974,2988776.854,
97,3.03952E+12,1371,Marjory Stoneman Douglas PLC-F, ,650 NW 132nd Ave, ,Miami-Dade,33182,305-222-4822,,PLC,0,0,0,S,25.77351,-80.40939,850524.9072,523807.5757,E316899,6/11/2020 9:42,E316899,4/3/2023 12:45,fe366701-90f6-41fe-aab3-d9db9d61b8b5,-8951132.779,2971056.435,
98,1.07813E+12,921,Neva King Cooper Educational Center, ,151 NW 5th St, ,Homestead,33030,305-247-4307,,SPC,PK-12,0,75,S,25.47452,-80.48044,827571.3128,415044.609,E316899,6/11/2020 9:42,E316899,4/3/2023 13:17,afdd1af0-bce2-4b3a-a81c-509d911645c6,-8959041.389,2934143.302,
99,3.35022E+12,1041,Coral Reef Elementary, ,7955 SW 152nd St, ,Palmetto Bay,33157,305-235-1464,,E,PK-5,932,745,S,25.62981,-80.32251,879388.224,471717.3896,E316899,6/11/2020 9:42,E316899,3/24/2023 13:11,05af1fbb-1c40-4daf-b14d-586c14dfeb53,-8941459.944,2953303.722,
100,2.72029E+12,2111,Hialeah Gardens Elementary PLC- B, ,9749 NW 127th Ter, ,Hialeah Gardens,33018,305-818-7976,,PLC,0,0,0,N,25.88979,-80.35737,867437.1437,566153.3662,E316899,6/11/2020 9:42,E316899,3/17/2023 15:53,d897e080-4972-4845-adaa-4f31792c1142,-8945342.083,2985438.484,
101,9.4026E+11,5241,South Miami K-8 Center, ,6800 SW 60th St, ,South Miami,33143,305-667-8847,,E,PK-8,788,562,C,25.71397,-80.30592,884691.1982,502335.5521,E316899,6/11/2020 9:42,E316899,4/4/2023 15:30,34c3212d-811d-4104-ad74-0c4914daac55,-8939614.06,2963698.925,
102,2.3227E+11,7201,Miami Beach Senior High, ,2231 Prairie Ave, ,Miami Beach,33139,305-532-4515,,S,12-Sep,2354,2213,N,25.79875,-80.13311,941386.249,533483.4377,E316899,6/11/2020 9:42,E316899,4/3/2023 12:54,2d4daf70-1ce9-44cd-953c-66accab67a03,-8920377.579,2974176.516,
103,3.22021E+12,91,Bob Graham Education Center PLC-H, ,8875 NW 143rd St, ,Miami Lakes,33018,305-231-8778,,PLC,0,0,0,N,25.90372,-80.34396,871824.2193,571237.9831,E316899,6/11/2020 9:42,E316899,3/24/2023 12:35,14fa56a5-457f-40fa-8210-bf8cbffeeeeb,-8943848.069,2987162.164,
104,4.3117E+11,2361,Hialeah Elementary, ,550 E 8th St, ,Hialeah,33010,305-888-6709,,E,PK-5,886,802,C,25.82923,-80.27051,896117.3824,544288.5569,E316899,6/11/2020 9:42,E316899,3/17/2023 15:50,928d1ecf-d05f-4127-9776-aada7fee090a,-8935672.547,2977945.928,
105,1.31141E+11,4171,Orchard Villa Elementary, ,5720 NW 13th Ave, ,Miami,33142,305-754-0607,,E,PK-5,723,329,C,25.82778,-80.21905,913048.7508,543859.0394,E316899,6/11/2020 9:42,E316899,4/3/2023 13:39,a94d7df4-6634-4653-b58c-ce23f8fa0d59,-8929943.736,2977766.698,
106,4.3002E+11,7049,Westland Hialeah Senior High, ,4000 W 18th Ave, ,Hialeah,33012,305-818-3000,,S,12-Sep,1749,1125,N,25.85792,-80.31894,880132.3942,554632.5265,E316899,6/11/2020 9:42,E316899,4/5/2023 11:59,d5ad2069-592e-46e6-8064-ea6bb8550467,-8941063.893,2981495.153,
107,3.01234E+12,231,Aventura Waterways K-8 Center, ,21101 NE 26th Ave, ,Miami-Dade,33180,305-933-5200,,E,K-8,1485,2182,N,25.97057,-80.14945,935604.8051,595903.5916,E316899,6/11/2020 9:42,E316899,3/24/2023 11:25,8571720f-14a5-4336-a047-980fe805d77f,-8922196.641,2995437.367,
108,3.05902E+12,671,Calusa Elementary, ,9580 W Calusa Club Dr, ,Miami-Dade,33186,305-385-0589,,E,PK-5,792,771,S,25.67903,-80.41225,849736.9804,489465.5184,E316899,6/11/2020 9:42,E316899,3/24/2023 12:50,c111fae5-5f68-4507-bff6-c0c8249f17f8,-8951451.03,2959382.179,
109,3.42116E+12,2161,Golden Glades Elementary, ,16520 NW 28th Ave, ,Miami Gardens,33054,305-624-9641,,E,PK-5,438,234,N,25.92504,-80.24712,903615.0628,579155.3123,E316899,6/11/2020 9:42,E316899,3/31/2023 15:57,186dcdae-dd87-4e73-8eb5-cccd80542547,-8933067.606,2989799.839,
110,1.07908E+12,7021,Center For International Education: A Cambridge A S, ,900 NE 23rd Ave, ,Homestead,33033,305-248-7911,,S,12-Sep,942,410,S,25.47822,-80.4455,839092.4233,416433.001,E316899,6/11/2020 9:42,E316899,3/24/2023 12:56,1f084cb4-b9da-4c20-a812-b1dd55df2d32,-8955151.969,2934598.596,
111,3.05927E+12,2151,Jack D. Gordon Elementary Manatee PLC-T, ,15551 SW 142nd Ave, ,Miami-Dade,33177,305-234-4863,,PLC,0,0,0,S,25.62287,-80.42222,846544.9592,469038.6622,E316899,6/11/2020 9:42,E316899,4/3/2023 11:53,0950eab7-2b56-466a-bfaf-4a09b9317009,-8952560.051,2952446.638,
112,3.03109E+12,6391,Madison Middle, ,3400 NW 87th St, ,Miami-Dade,33147,305-836-2610,,M,8-Jun,832,429,C,25.85236,-80.25328,901736.3822,552729.8239,E316899,6/11/2020 9:42,E316899,4/3/2023 12:40,661ab4fc-4ebd-40e9-8fa3-0b3c45a676a0,-8933754.807,2980807.653,
113,1.3133E+11,2661,Kensington Park Elementary, ,711 NW 30th Ave, ,Miami,33125,305-649-2811,,E,PK-5,1424,977,C,25.78061,-80.24328,905175.1547,526668.1209,E316899,6/11/2020 9:42,E316899,4/3/2023 12:23,e890b141-eac0-47d6-987f-35b29ea06c8e,-8932641.617,2971934.3,
114,3.07906E+12,161,Avocado Elementary, ,16969 SW 294th St, ,Miami-Dade,33030,305-247-4942,,E,PK-3,869,614,S,25.49404,-80.46612,832266.0965,422155.8341,E316899,6/11/2020 9:42,E316899,3/24/2023 11:33,baf59232-7639-451d-be88-b142506b88d5,-8957447.645,2936549.858,
115,1.07813E+12,6251,Homestead Middle, ,650 NW 2nd Ave, ,Homestead,33030,305-247-4221,,M,8-Jun,860,681,S,25.47635,-80.48187,827093.9537,415707.3879,E316899,6/11/2020 9:42,E316899,3/17/2023 16:01,e20ab13a-84e3-4457-8cd1-8cccd0a8b6a0,-8959201.591,2934368.799,
116,3.53007E+12,4011,Dr. Toni Bilbao Preparatory Academy, ,8905 NW 114th Ave, ,Doral,33178,305-863-5750,,E,PK-7,1084,663,C,25.85408,-80.38253,859227.4081,553131.3243,E316899,6/11/2020 9:42,E316899,3/24/2023 14:51,ab3d991f-28ad-4f63-b8c8-766b852b0032,-8948142.535,2981019.4,
117,3.42102E+12,4001,Norwood Elementary, ,19810 NW 14th Ct, ,Miami Gardens,33169,305-653-0068,,E,PK-5,593,461,N,25.95577,-80.22747,910002.4425,590363.3586,E316899,6/11/2020 9:42,E316899,4/3/2023 13:36,d1f390e1-dbc9-4855-adbb-c5d8644ec286,-8930881.947,2993604.281,
118,3.04021E+12,9013,Pre-K Intervention,FDLRS - South,5555 SW 93rd Ave, ,Miami-Dade,33165,305-271-5701,,SPC,PK,0,350,AC,25.71688,-80.34454,871970.5845,503326.0709,E316899,6/11/2020 9:42,E316899,4/3/2023 14:55,4053d458-34ea-456f-a805-ba733156d515,-8943913.055,2964057.739,
119,1.3231E+11,9015,School Board Adm - Annex, ,1500 Biscayne Blvd, ,Miami,33132,305-995-1106,,A,0,0,0, ,25.78977,-80.18951,922850.5848,530103.5472,E316899,6/11/2020 9:42,E316899,4/4/2023 15:17,bad24714-506a-4290-9c03-000642d5345d,-8926655.478,2973067.014,
120,3.66003E+12,5981,Dr. Edward L. Whigham PLC-E, ,8035 SW 196th St, ,Cutler Bay,33189,305-252-5050,,PLC,0,0,0,S,25.58537,-80.32497,878655.4723,455560.6518,E316899,6/11/2020 9:42,E316899,3/24/2023 14:13,a6ed868e-fd23-40d1-bcf9-26763320b372,-8941735.299,2947817.569,
121,3.0502E+12,8131,Dorothy M. Wallace C.O.P.E. Center, ,10225 SW 147th Ter, ,Miami-Dade,33176,305-233-1044,,ALT,12-Jul,369,34,AC,25.63287,-80.35879,867425.9371,472771.1243,E316899,6/11/2020 9:42,E316899,3/24/2023 14:11,df911d4f-fbb8-4b64-b66f-c803219f7c64,-8945499.673,2953681.91,
122,4.3118E+11,5201,South Hialeah Elementary, ,265 E 5th St, ,Hialeah,33010,305-885-4556,,E,PK-5,1292,878,C,25.82674,-80.27662,894112.6343,543373.0251,E316899,6/11/2020 9:42,E316899,4/4/2023 15:29,ed803db9-34bc-4529-a629-4c2132f78221,-8936352.675,2977638.183,
123,3.03953E+12,9237,Transportation Center Central West,Central West,13775 NW 6th St, ,Miami-Dade,33182,305-227-1995,,A,0,0,0, ,25.77325,-80.41842,847554.6165,523702.1866,E316899,6/11/2020 9:42,E316899,4/5/2023 11:33,645e2934-ec8b-4f1e-b4bf-49341ba86644,-8952137.666,2971025.084,
124,1.3114E+11,2531,Thena C. Crowder Early Childhood Diagnostic SP ED, ,757 NW 66th St, ,Miami,33150,305-836-0012,,SPC,PK,197,100,AC,25.83546,-80.20989,916044.9787,546669.8525,E316899,6/11/2020 9:42,E316899,4/4/2023 15:48,8f71e188-cc3b-488f-ac00-1914b80d552b,-8928924.098,2978717.01,
125,4.2132E+11,9571,North Region Office, ,733 E 57th St, ,Hialeah,33013,305-687-6565,,A,0,0,0, ,25.87494,-80.2683,896751.5338,560909.0157,E316899,6/11/2020 9:42,E316899,4/3/2023 13:35,4be3f182-a387-428a-99bd-cefdaabe5fad,-8935426.623,2983601.012,
126,3.04929E+12,7121,John A. Ferguson Senior High, ,15900 SW 56th St, ,Miami-Dade,33185,305-408-2700,,S,12-Sep,3755,4327,S,25.71266,-80.45107,836901.5418,501632.2912,E316899,6/11/2020 9:42,E316899,4/3/2023 12:00,e48c604c-dd65-465c-8dd2-cc22c70599ad,-8955772.246,2963536.32,
127,3.02107E+12,3861,North Glade Elementary, ,5000 NW 177th St, ,Miami-Dade,33055,305-624-3608,,E,PK-5,508,221,N,25.93388,-80.28294,891821.6934,582302.9301,E316899,6/11/2020 9:42,E316899,4/3/2023 13:30,1561bec0-c7b5-43b8-becd-a1cd88e11706,-8937055.964,2990894.256,
128,3.03128E+12,3181,Melrose Elementary, ,3050 NW 35th St, ,Miami-Dade,33142,305-635-8676,,E,PK-5,590,540,C,25.80769,-80.24524,904477.6496,536507.9497,E316899,6/11/2020 9:42,E316899,4/3/2023 12:51,9db3817d-bab8-482b-ba6e-b23eb1c5ccd7,-8932858.48,2975282.727,
129,4.3105E+11,1921,Flamingo Elementary, ,701 E 33rd St, ,Hialeah,33013,305-691-5531,,E,PK-5,884,502,N,25.85298,-80.26785,896947.5727,552927.033,E316899,6/11/2020 9:42,E316899,3/31/2023 15:47,0c3c4353-34ff-4a60-85d1-c7d0a6e2f4c9,-8935375.32,2980883.939,
131,3.06004E+12,5951,Whispering Pines Elementary, ,18929 SW 89th Rd, ,Cutler Bay,33157,305-238-7382,,E,PK-5,724,494,S,25.591,-80.33577,875086.6424,457589.3141,E316899,6/11/2020 9:42,E316899,4/5/2023 11:59,5f8b9ccb-59fd-4a60-9005-ad1163d99de8,-8942937.147,2948512.586,
132,3.02106E+12,6351,Lake Stevens Middle, ,18484 NW 48th Pl, ,Miami-Dade,33055,305-620-1294,,M,8-Jun,924,428,N,25.94115,-80.28224,892035.7417,584948.1469,E316899,6/11/2020 9:42,E316899,4/3/2023 12:26,6435df37-6ac3-4cb3-b357-e946f0f8594e,-8936978.555,2991794.722,
133,3.03115E+12,1401,Charles R. Drew K-8 Center, ,1775 NW 60th St, ,Miami-Dade,33142,305-691-8021,,E,PK-8,770,412,C,25.83023,-80.22627,910666.3974,544736.3695,E316899,6/11/2020 9:42,E316899,3/24/2023 13:01,32b866d7-4fc1-4323-a395-260732ece765,-8930748.178,2978070.003,
134,3.04915E+12,7051,G. Holmes Braddock Senior High, ,3601 SW 147th Ave, ,Miami-Dade,33185,305-225-9729,,S,12-Sep,3818,2455,S,25.73409,-80.43104,843464.5496,509450.7767,E316899,6/11/2020 9:42,E316899,3/31/2023 15:52,5a6a60a3-d61a-490a-9b52-67004914c32f,-8953541.972,2966184.914,
135,3.04031E+12,9731,"Early Childhood, ESE and Tiitle", ,11001 SW 76th St, ,Miami-Dade,33173,305-995-7243,,SPC,K-2,0,23,AC,25.69832,-80.3729,862663.159,496535.2413,E316899,6/11/2020 9:42,E316899,3/31/2023 15:37,78e1f3d8-db69-46cd-9472-9f5080c6e3fd,-8947070.761,2961764.765,
136,3.42117E+12,9232,Transportation Center North,North,16150 NW 42nd Ave, ,Miami Gardens,33054,305-625-9086,,A,0,0,0, ,25.9201,-80.2688,896494.6744,577321.7771,E316899,6/11/2020 9:42,E316899,4/5/2023 11:35,ae7f532c-6a86-4f3d-b32d-fab332faa208,-8935482.607,2989189.213,
137,1.07917E+12,4031,Gateway Environmental K-8 Learning Center, ,955 SE 18th Ave, ,Homestead,33035,305-257-6000,,E,PK-8,1690,1390,S,25.4609,-80.45073,837391.1902,410131.7089,E316899,6/11/2020 9:42,E316899,3/31/2023 15:53,e55d67b5-9e61-475d-b6bf-0768285d4c6f,-8955734.784,2932463.208,
138,3.0492E+12,211,Dr. Manuel C. Barreiro Elementary, ,5125 SW 162nd Ave, ,Miami-Dade,33185,305-229-4800,,E,PK-5,824,625,S,25.7175,-80.45499,835606.423,503385.5148,E316899,6/11/2020 9:42,E316899,3/24/2023 14:19,0cab6fb4-9940-416a-b1ad-909a24d64500,-8956207.666,2964134.145,
139,3.04003E+12,2331,Charles R. Hadley PLC-A, ,8390 NW 7th St, ,Miami-Dade,33126,305-265-2714,,PLC,0,0,0,C,25.77616,-80.33282,875718.3477,524890.1444,E316899,6/11/2020 9:42,E316899,3/24/2023 13:02,2a0c20ce-f7f1-4be7-8f96-627e84376ebf,-8942609.077,2971383.728,
140,3.04007E+12,5061,Dr. Carlos J. Finlay Elementary, ,851 SW 117th Ave, ,Miami-Dade,33174,305-552-7122,,E,PK-5,626,564,S,25.75919,-80.38155,859710.7291,518644.2546,E316899,6/11/2020 9:42,E316899,3/24/2023 14:11,2eafeff7-ecbf-4f57-ace6-b20eb2c53c48,-8948033.792,2969286.127,
141,3.04017E+12,4091,Olympia Heights Elementary, ,9797 SW 40th St, ,Miami-Dade,33165,305-221-3821,,E,PK-5,642,331,S,25.73328,-80.35339,869025.721,509272.8234,E316899,6/11/2020 9:42,E316899,4/3/2023 13:38,af0497ba-e652-4b90-a244-18ff6a7c42c4,-8944898.851,2966084.382,
142,3.04003E+12,4921,Seminole Elementary, ,121 SW 78th Pl, ,Miami-Dade,33144,305-261-7071,,E,PK-5,842,539,C,25.76924,-80.32337,878842.0149,522391.7938,E316899,6/11/2020 9:42,E316899,4/4/2023 15:24,40c2be6a-c031-4c69-a9bd-2b33e13b8880,-8941556.8,2970528.621,
143,3.42104E+12,6051,Carol City Middle, ,3737 NW 188th St, ,Miami Gardens,33055,305-624-2652,,M,8-Jun,1060,457,N,25.94528,-80.26241,898543.6879,586485.7497,E316899,6/11/2020 9:42,E316899,3/24/2023 12:54,9fd1a75f-56f1-476b-b5ad-a4707abee70b,-8934771.202,2992306.083,
144,3.04933E+12,1811,Dante B. Fascell Elementary, ,15625 SW 80th St, ,Miami-Dade,33193,305-380-1901,,E,PK-5,721,395,S,25.69339,-80.44528,838836.5629,494638.8437,E316899,6/11/2020 9:42,E316899,3/24/2023 13:19,60302743-fadf-4c8a-9c6c-008217ec6a29,-8955127.965,2961156.414,
145,5.3119E+11,9573,District Office/Charter School, ,1080 La Baron Dr, ,Miami Springs,33166,305-883-0403,,A,0,0,0, ,25.81243,-80.27431,894899.5269,538177.4168,E316899,6/11/2020 9:42,E316899,3/24/2023 14:10,55be0e88-1cd4-4884-8494-460104573633,-8936096.088,2975869.012,
146,3.06936E+12,73,Mandarin Lakes K-8 Academy, ,12225 SW 280TH St, ,Miami-Dade,33032,305-257-0377,,E,PK-8,1508,798,S,25.50759,-80.39072,857115.1756,427187.6862,E316899,6/11/2020 9:42,E316899,4/3/2023 12:43,b437cc1f-38e0-4853-b2a5-581a7f78ef96,-8949053.959,2938221.18,
147,1.3133E+11,2661,Kensington Park PLC-D, ,1025 NW 30th Ave, ,Miami,33125,305-649-4301,,PLC,0,0,0,C,25.78255,-80.2436,905067.8098,527371.2234,E316899,6/11/2020 9:42,E316899,4/3/2023 12:23,06eeff2e-d2a8-4787-b468-6d927e7fc7eb,-8932676.563,2972173.649,
148,1.4103E+11,7461,Miami Senior High, ,2450 SW 1st St, ,Miami,33135,305-649-9800,,S,12-Sep,2613,2862,C,25.77094,-80.23595,907608.5793,523168.5953,E316899,6/11/2020 9:42,E316899,4/3/2023 13:08,95690916-8863-4e35-8a70-83351efb5909,-8931825.333,2970739.326,
149,3.06934E+12,7631,Miami MacArthur South SH, ,13990 SW 264th St, ,Miami-Dade,33032,305-258-7200,,ALT,12-Jun,564,73,AC,25.52142,-80.41794,848112.9602,432172.2442,E316899,6/11/2020 9:42,E316899,4/3/2023 13:04,b7fd85fc-b9ab-4402-9857-ca5564a2d444,-8952084.941,2939926.534,
150,1.3113E+11,7005,iTech@Thomas A. Edison Education Center, ,6101 NW 2nd Ave, ,Miami,33127,305-754-4683,,S,12-Sep,927,241,C,25.83161,-80.20011,919273.2237,545288.2505,E316899,6/11/2020 9:42,E316899,4/3/2023 11:41,dfa680cf-4c7b-450f-bcd4-f80932de72cc,-8927834.437,2978240.26,
151,3.0492E+12,211,Dr. Manuel C. Barreiro Elementary ECC-3, ,16350 SW 47th St, ,Miami-Dade,33185,305-228-4200,,E,PK-5,324,0,S,25.71978,-80.45778,834681.9962,504209.7762,E316899,6/11/2020 9:42,E316899,11/18/2021 13:56,e028b12c-594a-441b-b73f-af2cbf5a7094,-8956519.074,2964415.652,
152,1.31131E+11,3051,Toussaint L'ouverture Elementary, ,120 NE 59th St, ,Miami,33137,305-758-2600,,E,PK-5,682,345,C,25.82946,-80.19389,921321.7403,544520.1819,E316899,6/11/2020 9:42,E316899,4/5/2023 11:24,37de8ac5-5251-4dc8-ba88-a7c4efa4ad3f,-8927142.794,2977974.665,
153,3.03129E+12,7801,George T. Baker Aviation Technical College, ,3275 NW 42nd Ave, ,Miami-Dade,33142,305-871-3143,,O,0,696,0,AC,25.80419,-80.26356,898452.8752,535202.2498,E316899,6/11/2020 9:42,E316899,3/31/2023 15:53,44e645a6-85d7-497d-a9fe-4abe0b21e239,-8934899.41,2974850.154,
154,1.07813E+12,2941,Laura C. Saunders Elementary, ,505 SW 8th St, ,Homestead,33030,305-247-3933,,E,PK-5,819,489,S,25.46301,-80.484,826410.4731,410855.1731,E316899,6/11/2020 9:42,E316899,4/3/2023 12:30,9ebd74b3-d7ad-4235-97d4-9436b85b6ce5,-8959438.557,2932723.524,
155,6.2229E+11,5005,David Lawrence Jr. K-8 Center PLC South Campus,David Lawrence Jr. K-8 Center,12175 NE 12th Ct, ,North Miami,33161,305-892-7080,,PLC,0,0,0,N,25.88761,-80.17363,927850.2792,565696.1397,E316899,6/11/2020 9:42,E316899,3/24/2023 14:04,68a82241-dee2-49e1-8a71-1e06e636ffcc,-8924888.445,2985167.714,
156,5.3013E+11,7511,Miami Springs Senior High, ,751 Dove Ave, ,Miami Springs,33166,305-885-3585,,S,12-Sep,2011,997,C,25.83038,-80.29467,888168.0289,544663.9013,E316899,6/11/2020 9:42,E316899,4/3/2023 13:11,9802a8ee-04de-4903-a2c8-50d69dbf3278,-8938362,2978088.398,
157,1.32071E+11,3431,Phyllis Ruth Miller Elementary, ,840 NE 87th St, ,Miami,33138,305-756-3800,,E,PK-5,731,485,C,25.85502,-80.18063,925626.6373,553836.1594,E316899,6/11/2020 9:42,E316899,4/3/2023 14:50,ea52561a-8e64-4d96-bb47-066ae15559cc,-8925666.355,2981135.704,
158,3.41132E+12,5081,Dr. Frederica S. Wilson/Skyway Elementary, ,4555 NW 206th Ter, ,Miami Gardens,33055,305-621-5838,,E,PK-5,588,252,N,25.96166,-80.27766,893499.875,592411.0619,E316899,6/11/2020 9:42,E316899,3/24/2023 14:13,c6dea9cf-2c72-4686-95c4-605ac5eb95d3,-8936468.664,2994333.873,
159,3.01232E+12,7141,Dr. Michael M. Krop Senior High, ,1410 NE 215th St, ,Miami-Dade,33179,305-652-6808,,S,12-Sep,2186,2190,N,25.97153,-80.17338,927746.1245,596201.5623,E316899,6/11/2020 9:42,E316899,3/24/2023 14:25,e3a10647-e685-4e53-8249-534ae967b712,-8924858.547,2995556.03,
161,1.31251E+11,6361,Jose De Diego Middle, ,3100 NW 5th Ave, ,Miami,33127,305-573-7229,,M,8-Jun,1071,900,C,25.80591,-80.20369,918147.0175,535939.1773,E316899,6/11/2020 9:42,E316899,4/3/2023 12:06,e2ad0b3a-6502-482e-b482-97a7c7038b2b,-8928234.708,2975061.834,
162,3.05018E+12,2021,Gloria Floyd Elementary, ,12650 SW 109th Ave, ,Miami-Dade,33176,305-255-3934,,E,PK-5,772,363,S,25.65105,-80.37169,863143.1516,479357.4173,E316899,6/11/2020 9:42,E316899,3/31/2023 15:57,1bf312db-3b7d-429d-b839-07b8cd9e5611,-8946936.092,2955926.486,
163,3.04911E+12,2341,Joe Hall Elementary, ,1901 SW 134th Ave, ,Miami-Dade,33175,305-223-9823,,E,PK-5,595,397,S,25.7498,-80.41268,849485.495,515185.1536,E316899,6/11/2020 9:42,E316899,4/3/2023 11:59,ebe73281-be98-4243-a363-99f7b4610374,-8951497.365,2968125.745,
164,3.0503E+12,4441,Pine Lake Elementary, ,16700 SW 109th Ave, ,Miami-Dade,33157,305-233-7018,,E,PK-5,648,384,S,25.61382,-80.37017,863710.0282,465829.748,E316899,6/11/2020 9:42,E316899,4/3/2023 14:51,51a0b7d4-84cc-43d6-8641-84803330a08a,-8946766.277,2951330.093,
165,1.4002E+11,9025,Food & Nutrition Center, ,7042 W Flagler St, ,Miami,33144,786-275-0420,,A,0,0,0, ,25.76998,-80.30933,883460.3279,522685.9009,E316899,6/11/2020 9:42,E316899,3/31/2023 15:49,ef746477-c153-4750-b251-b6868d001863,-8939994.175,2970620.496,
166,3.0692E+12,4581,Redland Elementary, ,24501 SW 162nd Ave, ,Miami-Dade,33031,305-247-8141,,E,PK-5,903,943,S,25.53914,-80.4532,836464.1254,438564.4275,E316899,6/11/2020 9:42,E316899,4/3/2023 15:03,25cb6a8b-8357-455b-9982-5bda00fa3195,-8956008.145,2942113.011,
167,3.04011E+12,1841,Flagami Elementary, ,920 SW 76th Ave, ,Miami-Dade,33144,305-261-2031,,E,PK-5,504,386,C,25.76131,-80.31846,880473.8613,519520.3754,E316899,6/11/2020 9:42,E316899,3/31/2023 15:46,7dc3c46c-6791-4896-84ff-3479e6ae50e4,-8941009.864,2969549.252,
168,3.04028E+12,6211,Glades Middle, ,9451 SW 64th St, ,Miami-Dade,33173,305-271-3342,,M,8-Jun,952,673,S,25.70963,-80.34751,871004.6164,500685.1449,E316899,6/11/2020 9:42,E316899,3/31/2023 15:56,4ffd73e5-94b0-4399-bb47-1739e50a41c4,-8944244.056,2963161.623,
169,7.2217E+11,2081,Fulford Elementary, ,16140 NE 18th Ave, ,North Miami Beach,33162,305-949-3425,,E,PK-5,503,465,N,25.92374,-80.16429,930839.5205,578848.1456,E316899,6/11/2020 9:42,E316899,3/31/2023 15:52,53b4ee2a-8fc4-4ba9-8fea-eddee63f963a,-8923848.011,2989639.053,
170,3.22023E+12,3281,Miami Lakes K-8 Center, ,14250 NW 67th Ave, ,Miami Lakes,33014,305-822-7757,,E,PK-8,1364,1178,N,25.90304,-80.30891,883345.154,571048.4402,E316899,6/11/2020 9:42,E316899,4/3/2023 13:03,3e976734-f788-4a75-9d2b-437ab0cbfb95,-8939947.139,2987077.485,
171,1.01091E+11,7041,School For Advanced Studies Wolfson,Wolfson,25 NE 2nd St, ,Miami,33132,305-237-7270,,S,12-Nov,0,128,S,25.77638,-80.19321,921663.5625,525228.625,E316899,6/11/2020 9:42,E316899,4/4/2023 15:22,ef2d0947-beca-4f85-9e20-7544a8a2a33d,-8927067.137,2971411.438,
172,1.3126E+11,4841,Santa Clara Elementary, ,1051 NW 29th Ter, ,Miami,33127,305-635-1417,,E,PK-5,713,620,C,25.80463,-80.21255,915235.4376,535459.9377,E316899,6/11/2020 9:42,E316899,4/4/2023 15:17,20cf7ea2-a604-48c8-adc3-9fb902e7b975,-8929220.774,2974904.764,
173,3.04015E+12,1641,Emerson Elementary, ,8001 SW 36th St, ,Miami-Dade,33155,305-264-5757,,E,PK-5,576,313,C,25.73719,-80.32442,878557.1742,510743.6673,E316899,6/11/2020 9:42,E316899,3/24/2023 15:57,1b7cb7a7-747b-424d-8440-06e5978419da,-8941673.331,2966568.226,
174,1.31361E+11,9015,School Board Adm -Garage, ,115 NE 15th St, ,Miami,33132,305-995-4576,,A,0,0,0, ,25.79026,-80.19117,922303.702,530278.6553,E316899,6/11/2020 9:42,E316899,4/4/2023 15:18,b05c6676-356b-4116-8047-0f591377de57,-8926840.119,2973127.719,
175,3.0402E+12,6801,Riviera Middle, ,10301 SW 48th St, ,Miami-Dade,33165,305-226-4286,,M,8-Jun,998,520,S,25.72337,-80.36169,866313.5362,505657.8722,E316899,6/11/2020 9:42,E316899,4/3/2023 15:08,2e85478d-fa65-4801-8688-aacf53019abf,-8945821.867,2964859.868,
176,3.04031E+12,7029,Terra Environmental Research Institute Senior High, ,11005 SW 84th St, ,Miami-Dade,33173,305-412-5800,,S,12-Sep,1647,1600,S,25.69261,-80.37026,863543.2749,494465.6602,E316899,6/11/2020 9:42,E316899,4/4/2023 15:46,e100cf1b-200e-4287-9bef-09ac6e711954,-8946776.577,2961059.92,
177,4.2025E+11,7131,Hialeah-Miami Lakes Senior High, ,7977 W 12th Ave, ,Hialeah,33014,305-823-1330,,S,12-Sep,2749,1342,N,25.89496,-80.30732,883882.8746,568114.6247,E316899,6/11/2020 9:42,E316899,3/17/2023 15:41,069340dd-a51a-44f6-81a7-fafaee1854ef,-8939770.302,2986077.683,
178,3.04232E+12,9485,Marjory Stoneman Douglas Biscayne Nature Center, ,6767 Crandon Blvd, ,Miami-Dade,33149,305-361-6767,,O,0,0,0, ,25.7154,-80.15129,935599.3587,503151.2487,E316899,6/11/2020 9:42,E316899,4/3/2023 12:44,861317cd-32a9-4ac2-ae89-e7c265e11975,-8922401.408,2963875.108,
179,3.22013E+12,8901,Miami Lakes Educational Center and Technical College, ,5780 NW 158th St, ,Miami Lakes,33014,305-557-1100,,O,0,0,0,N,25.91624,-80.29495,887907.3571,575869.2607,E316899,6/11/2020 9:42,E316899,4/3/2023 13:01,2bb87f73-708b-43b4-9ba4-f4362937ed26,-8938393.505,2988710.637,
180,2.4203E+11,5091,Miami Beach South Pointe Elementary, ,1050 4th St, ,Miami Beach,33139,305-531-5437,,E,PK-5,452,488,N,25.77324,-80.13925,939428.2284,524201.6475,E316899,6/11/2020 9:42,E316899,4/3/2023 12:55,b80eaab1-d186-4076-8a37-ae1592f79bd9,-8921060.521,2971023.936,
181,5.3119E+11,3381,Miami Springs Elementary, ,51 Park St, ,Miami Springs,33166,305-888-4558,,E,PK-5,602,384,C,25.8229,-80.28457,891503.3126,541963.4385,E316899,6/11/2020 9:42,E316899,4/3/2023 13:10,802986a7-0ea6-46e6-b007-03170d34a68a,-8937238.269,2977163.436,
182,3.0503E+12,9292,Transportation Center Vehicle Maintenance Office,Center,11601 SW 160th St, ,Miami-Dade,33177,305-234-0849,,A,0,0,0, ,25.62115,-80.38011,860421.5989,468475.636,E316899,6/11/2020 9:42,E316899,4/5/2023 11:39,0d1b9779-bee7-4bf1-ba86-effc5c544829,-8947872.949,2952234.084,
183,7.2208E+11,2281,Greynolds Park Elementary, ,1536 NE 179th St, ,North Miami Beach,33162,305-949-2129,,E,PK-5,742,531,N,25.94006,-80.17,928924.8625,584769.8021,E316899,6/11/2020 9:42,E316899,4/3/2023 11:18,9599df8a-01ee-4381-bc8e-e640dd4d0e7f,-8924483.742,2991659.751,
184,3.05017E+12,2881,Leewood K-8 Center, ,10343 SW 124th St, ,Miami-Dade,33176,305-233-7430,,E,PK-8,976,603,S,25.65458,-80.36166,866440.1574,480655.9435,E316899,6/11/2020 9:42,E316899,4/3/2023 12:32,174c050a-7666-415b-91fd-fdbeeb2139a1,-8945819.882,2956362.32,
185,3.42102E+12,7381,Miami Norland Senior High, ,1193 NW 193rd St, ,Miami Gardens,33169,305-653-1416,,S,12-Sep,1995,1595,N,25.95132,-80.21914,912752.5888,588761.4079,E316899,6/11/2020 9:42,E316899,4/3/2023 13:04,d432b0eb-a671-4740-a2ce-02d8317ff4ef,-8929953.53,2993053.091,
186,3.05936E+12,7371,Robert Morgan Educational Center Senior High, ,18180 SW 122nd Ave, ,Miami-Dade,33177,305-253-9920,,S,12-Sep,1907,1818,S,25.59915,-80.39007,857177.0096,460464.8771,E316899,6/11/2020 9:42,E316899,4/3/2023 15:09,0a9714bd-07d4-49e1-978f-0df8c2afd74a,-8948981.514,2949518.357,
187,3.05903E+12,831,Claude Pepper Elementary, ,14550 SW 96th St, ,Miami-Dade,33186,305-386-5244,,E,PK-5,950,447,S,25.67654,-80.42996,843910.3869,488533.3809,E316899,6/11/2020 9:42,E316899,3/24/2023 13:05,b78f5d8a-4537-4a8e-919d-d2c5c0cabcd6,-8953421.737,2959074.071,
188,3.0692E+12,9261,Maintenance Service Center 4, ,24600 SW 159th Ave, ,Miami-Dade,33031,305-248-3016,,A,0,0,0, ,25.53721,-80.44975,837603.1981,437867.7604,E316899,6/11/2020 9:42,E316899,4/3/2023 12:43,913a3c3c-b676-4544-bb28-866974bbc5bd,-8955624.566,2941874.93,
189,3.01232E+12,2581,Madie Ives Elementary PLC-M, ,1351 Ives Dairy Rd, ,Miami-Dade,33179,305-651-3155,,PLC,0,0,0,N,25.96564,-80.17455,927369.6735,594057.0388,E316899,6/11/2020 9:42,E316899,4/3/2023 12:39,f9a65494-6c6a-454b-812b-971ceab9469b,-8924990.675,2994826.321,
190,3.06912E+12,661,Caribbean K-8 Center, ,11990 SW 200th St, ,Miami-Dade,33177,305-233-7131,,E,PK-8,994,726,S,25.58045,-80.38627,858460.25,453674.1545,E316899,6/11/2020 9:42,E316899,3/24/2023 12:51,8f7771ef-0cb5-4252-b745-c9c0c2d365e4,-8948558.692,2947210.276,
191,3.42105E+12,3781,Barbara Hawkins Elementary, ,19010 NW 37th Ave, ,Miami Gardens,33056,305-624-2615,,E,PK-5,492,243,N,25.94668,-80.26205,898661.1248,586995.4999,E316899,6/11/2020 9:42,E316899,3/24/2023 12:28,39ff1391-e402-4762-9205-1d2cb571cda2,-8934730.448,2992479.471,
192,1.4105E+11,2781,Kinloch Park Elementary, ,4275 NW 1st St, ,Miami,33126,305-445-1351,,E,PK-5,818,590,C,25.77302,-80.26522,897971.8123,523867.5626,E316899,6/11/2020 9:42,E316899,4/3/2023 12:25,160f9c44-aa8a-48d6-b0dc-681bbb2432da,-8935083.568,2970995.679,
193,1.3125E+11,7056,Young Men's Preparatory Academy Senior High, ,3001 NW 2nd Ave, ,Miami,33127,305-571-1111,,S,12-Jun,437,150,C,25.80524,-80.19904,919679.2978,535708.4136,E316899,6/11/2020 9:42,E316899,4/5/2023 12:28,a34f1e15-6d14-4a65-bd68-ff11a6b4c411,-8927716.757,2974980.169,
194,1.3112E+11,3021,Jesse J. McCrary Jr. Elementary, ,514 NW 77th St, ,Miami,33150,305-754-7531,,E,PK-5,674,363,C,25.84509,-80.20537,917511.0648,550176.6517,E316899,6/11/2020 9:42,E316899,4/3/2023 11:58,7cc5d941-e321-49b2-bd15-db13163b0136,-8928420.769,2979907.304,
195,1.4001E+11,1801,Fairlawn Elementary, ,444 SW 60th Ave, ,Miami,33144,305-261-8880,,E,PK-5,648,568,C,25.76664,-80.29351,888674.4378,521497.4061,E316899,6/11/2020 9:42,E316899,3/31/2023 15:45,e2083411-2f36-44e2-97c3-7bc49f7f565e,-8938232.698,2970206.906,
196,3.42102E+12,4341,Parkway Elementary, ,1320 NW 188th St, ,Miami Gardens,33169,305-653-0066,,E,PK-5,478,225,N,25.94543,-80.22386,911213.2503,586613.9371,E316899,6/11/2020 9:42,E316899,4/3/2023 14:48,8b2cac58-1ce8-4308-8e31-3d8b97de9a67,-8930479.297,2992324.801,
197,3.04003E+12,2331,Charles R. Hadley Elementary, ,8400 NW 7th St, ,Miami-Dade,33126,305-261-3719,,E,PK-5,812,642,C,25.77532,-80.33281,875726.2138,524584.8047,E316899,6/11/2020 9:42,E316899,3/24/2023 13:02,4e62e7c8-53c5-4e82-a48f-4583decb9b50,-8942606.94,2971279.866,
198,3.03121E+12,9281,Maintenance Service Center 2, ,2925 NW 41st St, ,Miami-Dade,33142,305-995-4300,,A,0,0,0, ,25.81309,-80.24291,905232.8622,538474.5811,E316899,6/11/2020 9:42,E316899,4/3/2023 12:42,f144bfe9-cc2b-4418-8d9e-7c1680dab5d1,-8932599.129,2975950.301,
199,1.67825E+12,9233,Transportation Center South,South,660 SW 3rd Ave, ,Florida City,33034,305-248-3380,,A,0,0,0, ,25.44154,-80.47878,828165.5205,403057.9151,E316899,6/11/2020 9:42,E316899,4/5/2023 11:36,397569f7-094a-4b65-a401-b469813757ac,-8958856.706,2930076.266,
200,4.3001E+11,3141,Meadowlane Elementary, ,4280 W 8th Ave, ,Hialeah,33012,305-822-0660,,E,PK-5,976,736,N,25.86172,-80.29898,886688.3755,556046.917,E316899,6/11/2020 9:42,E316899,4/3/2023 12:50,97b5aac8-b4f9-4eb0-8862-ec683f8c4847,-8938842.187,2981964.796,
201,3.04019E+12,4761,Royal Palm Elementary, ,4200 SW 112th Ct, ,Miami-Dade,33165,305-221-7961,,E,PK-5,576,480,S,25.72923,-80.37667,861368.3665,507762.4126,E316899,6/11/2020 9:42,E316899,4/3/2023 15:24,e2fe81ff-76e2-4954-96e6-03f5d6ef4389,-8947490.543,2965583.389,
202,5.3013E+11,5361,Springview Elementary, ,1122 Bluebird Ave, ,Miami Springs,33166,305-885-6466,,E,PK-5,452,307,C,25.83323,-80.30309,885392.3875,545684.0493,E316899,6/11/2020 9:42,E316899,4/4/2023 15:39,5f081e3b-740d-4612-bcb1-5b1947480534,-8939299.485,2978440.556,
203,3.02136E+12,5141,Hubert O. Sibley K-8 Center, ,255 NW 115th St, ,Miami-Dade,33168,305-953-3737,,E,PK-8,965,637,N,25.8808,-80.20353,918037.046,563161.5861,E316899,6/11/2020 9:42,E316899,3/17/2023 16:07,23789ee8-a2a3-44d1-b332-bf23f6a23d38,-8928216.101,2984325.592,
204,1.4002E+11,9134,Materials Control Center, ,7040 W Flagler St, ,Miami,33144,786-275-0775,,A,0,0,0, ,25.76998,-80.30933,883460.3279,522685.9009,E316899,6/11/2020 9:42,E316899,4/3/2023 12:46,c1b5424a-ddf2-4b77-bc76-a5123209aa28,-8939994.175,2970620.496,
205,3.66008E+12,2321,Gulfstream Elementary, ,20900 SW 97th Ave, ,Cutler Bay,33189,305-235-6811,,E,PK-5,897,620,S,25.57276,-80.34858,870897.2674,450937.9756,E316899,6/11/2020 9:42,E316899,4/3/2023 11:19,374dff51-312e-41d6-9654-bbe4b2fba28b,-8944363.097,2946261.068,
206,3.42115E+12,5131,North Dade Center For Modern Languages Elementary, ,1840 NW 157th St, ,Miami Gardens,33054,305-625-3885,,E,K-5,436,318,N,25.91635,-80.22964,909375.8584,576031.7616,E316899,6/11/2020 9:42,E316899,4/5/2023 10:43,47ebf182-6b52-4457-bbd1-27af30fb960e,-8931122.765,2988724.831,
207,3.01233E+12,2441,Virginia A. Boone/Highland Oaks Elementary, ,20500 NE 24th Ave, ,Miami-Dade,33180,305-931-1770,,E,PK-5,600,608,N,25.96576,-80.15471,933890.5615,594142.6695,E316899,6/11/2020 9:42,E316899,4/5/2023 11:44,f05df3cc-35b2-4ac6-92d8-1e5223d0dc07,-8922781.284,2994841.309,
208,5.3013E+11,7512,Miami Springs Adult Education, ,751 Dove Ave, ,Miami Springs,33166,305-885-3585,,O,0,0,0, ,25.83038,-80.29467,888168.0289,544663.9013,E316899,6/11/2020 9:42,E316899,4/3/2023 13:10,e99ddbf1-7c47-4596-aefe-f70d8282a798,-8938362,2978088.398,
209,3.04911E+12,9412,Dade County Public School-Management Information, ,13135 SW 26th St, ,Miami-Dade,33175,305-994-2530,,A,0,0,0, ,25.74429,-80.40724,851281.603,513191.8183,E316899,6/11/2020 9:42,E316899,3/24/2023 13:18,5ca5919f-03d5-4bc2-baec-e7ad8a047118,-8950892.965,2967445.211,
210,1.3135E+11,8005,Lindsey Hopkins Technical College, ,750 NW 20th St, ,Miami,33127,305-324-6070,,O,0,0,0,C,25.79504,-80.20763,916878.0296,531983.8854,E316899,6/11/2020 9:42,E316899,4/3/2023 12:35,c70e2cdd-4bdc-4fc2-ac7f-09d34b37f83e,-8928672.109,2973718.969,
211,2.3222E+11,6541,Miami Beach Nautilus Middle, ,4301 N Michigan Ave, ,Miami Beach,33140,305-532-3481,,M,8-Jun,1060,943,N,25.81533,-80.13455,940872.4946,539507.76,E316899,6/11/2020 9:42,E316899,4/3/2023 12:54,8aec0bcf-7d3c-4fe4-83f0-462abf3a48f3,-8920537.984,2976227.032,
212,4.3012E+11,481,James H. Bright Elementary/J.W. Johnson Elementary, ,2530 W 10th Ave, ,Hialeah,33010,305-885-1683,,E,PK-5,704,500,N,25.84482,-80.30256,885544.1008,549899.377,E316899,6/11/2020 9:42,E316899,4/3/2023 11:54,bfcc371f-9743-4319-bdcb-f574c04d810f,-8939240.574,2979874.699,
213,3.03115E+12,9234,Transportation Center Northeast,Northeast,5901 NW 27th Ave, ,Miami-Dade,33142,305-633-6909,,A,0,0,0, ,25.82918,-80.24076,905904.2567,544328.1002,E316899,6/11/2020 9:42,E316899,4/5/2023 11:35,2c59913d-8420-40bf-93f1-93c7effd95bd,-8932360.524,2977940.532,
214,3.05031E+12,3261,Miami Heights Elementary, ,17661 SW 117th Ave, ,Miami-Dade,33177,305-238-3602,,E,PK-5,1251,695,S,25.60417,-80.38028,860393.25,462304.3746,E316899,6/11/2020 9:42,E316899,4/3/2023 12:59,8a7a95ec-efe7-4efc-9e26-58980eacb6f0,-8947892.274,2950138.03,
215,3.06901E+12,5281,South Miami Heights Elementary, ,12231 SW 190th Ter, ,Miami-Dade,33177,305-238-6610,,E,PK-5,692,499,S,25.59033,-80.38958,857352.4349,457259.1414,E316899,6/11/2020 9:42,E316899,4/4/2023 15:30,21fece28-d6b9-45ab-8424-37fe9013cf42,-8948927.245,2948429.398,
216,3.06008E+12,1241,Cutler Ridge Elementary, ,20210 Coral Sea Rd, ,Cutler Bay,33189,305-235-4611,,E,PK-5,982,399,S,25.57975,-80.35383,869154.1296,453471.2971,E316899,6/11/2020 9:42,E316899,3/24/2023 13:16,0ec01b7c-2daf-438f-bf93-312d1b372202,-8944947.571,2947124.154,
217,3.02012E+12,7012,American Senior High Adult Education, ,18350 NW 67th Ave, ,Miami-Dade,33015,305-557-3770,,O, ,0,0, ,25.93941,-80.30756,883717.7351,584270.1355,E316899,6/11/2020 9:42,E316899,11/18/2021 13:35,02e7ded8-21c3-4635-8789-f9b1155f4a84,-8939797.322,2991579.061,
218,3.04009E+12,7272,Miami Coral Park Adult Education, ,8865 SW 16th St, ,Miami-Dade,33165,305-226-6565,,O,0,0,0, ,25.75528,-80.34052,873223.7992,517289.1936,E316899,6/11/2020 9:42,E316899,4/3/2023 12:57,6fcea255-48cf-4f38-9f84-f1b15e50a87b,-8943465.754,2968803.055,
219,2.72033E+12,6751,Hialeah Gardens Middle, ,11690 NW 92nd Ave, ,Hialeah Gardens,33018,305-817-0017,,M,8-Jun,1505,1649,N,25.8798,-80.34791,870565.4791,562537.8648,E316899,6/11/2020 9:42,E316899,3/17/2023 15:54,ed5889ce-6dbb-4b34-8902-71e3c670ba2f,-8944288.953,2984202.445,
220,3.02012E+12,7011,American Senior High, ,18350 NW 67th Ave, ,Miami-Dade,33015,305-557-3770,,S,12-Sep,2184,1611,N,25.93962,-80.30851,883405.3158,584344.9745,E316899,6/11/2020 9:42,E316899,3/23/2023 15:34,fae26a8e-f293-48ba-ab42-13c31e23a91b,-8939903.013,2991605.111,
221,3.12211E+12,92,Norman S. Edelcup/Sunny Isles Beach K-8, ,201 182nd Dr, ,Sunny Isles Beach,33160,305-933-6161,,E,K-8,1769,2339,N,25.94474,-80.12317,944302.4451,586571.853,E316899,6/11/2020 9:42,E316899,4/3/2023 13:24,eb840b91-4987-486b-ac7f-7f960d5ee7ca,-8919271.057,2992239.342,
222,3.42101E+12,6571,Norland Middle, ,1235 NW 192nd Ter, ,Miami Gardens,33169,305-653-1210,,M,8-Jun,1449,687,N,25.95095,-80.22267,911590.7502,588622.6247,E316899,6/11/2020 9:42,E316899,4/3/2023 13:23,2117f526-b336-41fc-a7cc-b7aabcb04176,-8930347.385,2993008.177,
223,1.3122E+11,7341,Miami Jackson Senior High, ,1751 NW 36th St, ,Miami,33142,305-634-2621,,S,12-Sep,2060,1275,C,25.81028,-80.22614,910753.014,537485.7844,E316899,6/11/2020 9:42,E316899,4/3/2023 13:00,80fa63c9-325b-4921-afba-fc663bdc3e69,-8930733.302,2975602.984,
224,3.02127E+12,5901,Carrie P. Meek/Westview K-8 Center Annex,Former Westview MS,1901 NW 127th St, ,Miami-Dade,33167,305-688-9641,,E,PK-8,218,0,C,25.89075,-80.23159,908788.1976,566722.0312,E316899,6/11/2020 9:42,E316899,3/24/2023 12:55,c039a634-49b6-488e-b4e0-5321c447efeb,-8931340.251,2985556.382,
225,3.05001E+12,4421,Pinecrest Elementary, ,10250 SW 57th Ave, ,Pinecrest,33156,305-667-5579,,E,PK-5,1110,960,S,25.67619,-80.2848,891718.7305,488640.947,E316899,6/11/2020 9:42,E316899,4/3/2023 14:52,c060c1e7-15d0-46a2-b4d8-b703d1d964cc,-8937263.229,2959031.667,
226,3.01233E+12,6241,Highland Oaks Middle, ,2375 NE 203rd St, ,Miami-Dade,33180,305-932-3810,,M,8-Jun,1023,802,N,25.96398,-80.15417,934071.563,593498.3751,E316899,6/11/2020 9:42,E316899,3/17/2023 16:00,97b32a17-0571-4efc-a300-f6c61b334081,-8922721.374,2994621.444,
227,3.04901E+12,1371,Marjory Stoneman Douglas Elementary, Main Campus,11901 SW 2nd St, ,Miami-Dade,33184,305-226-4356,,E,PK-5,1321,661,S,25.76666,-80.3894,857117.8367,521348.1716,E316899,6/11/2020 9:42,E316899,4/3/2023 12:45,e592790c-05ca-47b2-8fcb-a58f7ab1ae08,-8948906.518,2970209.777,
228,3.04007E+12,9071,Academy for Advanced Academics - South,Modesto Maidique,11200 SW 8th St, VH 130,Miami-Dade,33199,305-348-7041,,S,12-Nov,0,0, ,25.75807,-80.37702,861204.7206,518246.4615,E316899,6/11/2020 9:42,E316899,3/23/2023 15:19,41a0a844-906d-4421-9f04-35da2be41a41,-8947529.135,2969148.459,
229,2.72029E+12,2111,Hialeah Gardens Elementary, ,9702 NW 130th St, ,Hialeah Gardens,33018,305-827-8830,,E,PK-5,865,1041,N,25.89103,-80.35698,867565.2236,566602.8819,E316899,6/11/2020 9:42,E316899,3/17/2023 15:52,0c6ac8aa-3441-4f1f-aa6b-6b968fcc5492,-8945297.971,2985591.301,
230,9.40361E+11,3061,Ludlam Elementary, ,6639 SW 74th St, ,South Miami,33143,305-667-5551,,E,PK-5,446,277,C,25.70224,-80.30078,886405.8196,498080.0472,E316899,6/11/2020 9:42,E316899,4/3/2023 12:37,66fe4e20-1c53-4aac-951b-28fb77b1eed3,-8939041.991,2962249.332,
231,5.3119E+11,6521,Miami Springs Middle, ,150 S Royal Poinciana Blvd, ,Miami Springs,33166,305-888-6457,,M,8-Jun,1307,710,C,25.81489,-80.27353,895154.1877,539070.938,E316899,6/11/2020 9:42,E316899,4/3/2023 13:11,64b7e38e-8762-4aa0-a2af-b7b1006f3a94,-8936008.252,2976172.52,
232,3.03109E+12,9271,Vacant Property, ,2780 NW 87th St, ,Miami-Dade,33147,305-835-1000,,A,0,0,0, ,25.85278,-80.24482,904518.3204,552895.4953,E316899,6/11/2020 9:42,E316899,4/5/2023 11:42,a20c1429-98f8-4097-8955-24f467049d84,-8932812.876,2980858.623,
233,1.31251E+11,1441,Paul Laurence Dunbar K-8 Center, ,505 NW 20th St, ,Miami,33127,305-573-2344,,E,PK-8,788,344,C,25.79642,-80.20342,918261.0621,532493.6877,E316899,6/11/2020 9:42,E316899,4/3/2023 14:49,e1eb185b-58cb-4130-be01-034b102e90b5,-8928203.177,2973889.543,
234,3.04935E+12,5961,Winston Park K-8 Center, ,13200 SW 79th St, ,Miami-Dade,33183,305-386-7622,,E,PK-8,1147,1235,S,25.69568,-80.40637,851650.9959,495526.206,E316899,6/11/2020 9:42,E316899,4/5/2023 12:16,d9aa0116-5f59-45df-9d79-08f0352916ea,-8950794.908,2961439.092,
235,3.41133E+12,3821,North County K-8 Center, ,3250 NW 207th St, ,Miami Gardens,33056,305-624-9648,,E,PK-8,599,343,N,25.964,-80.25479,901009.2815,593304.0698,E316899,6/11/2020 9:42,E316899,4/3/2023 13:25,b5995546-1827-4e9e-8245-4753757a8327,-8933922.863,2994623.72,
236,3.02134E+12,4491,Henry E.S. Reeves K-8 Center, ,2005 NW 111th St, ,Miami-Dade,33167,305-953-7243,,E,PK-8,689,889,C,25.87623,-80.23181,908745.8752,561444.3132,E316899,6/11/2020 9:42,E316899,4/3/2023 11:22,e1e4d2b3-7051-4d04-8591-d213bebfd2e9,-8931365.04,2983759.896,
237,1.412E+11,5561,Frances S. Tucker Elementary, ,3500 Douglas Rd, ,Miami,33133,305-567-3533,,E,PK-6,486,314,C,25.72632,-80.25393,901783.5335,506916.7289,E316899,6/11/2020 9:42,E316899,3/31/2023 15:50,efecb35f-80d5-4771-9701-65c51c45e6b6,-8933826.699,2965224.599,
238,3.05908E+12,4511,Dr. Gilbert L. Porter Elementary, ,15851 SW 112th St, ,Miami-Dade,33196,305-382-0792,,E,PK-5,937,587,S,25.66468,-80.45267,836447.4103,484193.299,E316899,6/11/2020 9:42,E316899,3/24/2023 14:14,cdcff2a8-e2a2-4e66-a539-223bd7b10a69,-8955950.199,2957609.933,
239,3.03103E+12,7251,Miami Central Senior High, ,1781 NW 95th St, ,Miami-Dade,33147,305-696-4161,,S,12-Sep,2322,1362,C,25.8617,-80.2283,909932.1392,556170.3925,E316899,6/11/2020 9:42,E316899,4/3/2023 12:56,b2fe7748-1b41-4a19-9ae5-68d5a152544d,-8930973.936,2981962.469,
240,3.02218E+12,4021,Oak Grove Elementary, ,15640 NE 8th Ave, ,Miami-Dade,33162,305-945-1511,,E,PK-5,652,476,N,25.9188,-80.18412,924331.3495,577011.3965,E316899,6/11/2020 9:42,E316899,4/3/2023 13:36,41a93440-6653-4dca-916f-0942c8e2660e,-8926056.006,2989027.586,
241,3.06019E+12,311,Goulds Elementary, ,23555 SW 112th Ave, ,Miami-Dade,33032,305-257-4400,,E,PK-5,824,432,S,25.54888,-80.37164,863335.2982,442223.9429,E316899,6/11/2020 9:42,E316899,3/31/2023 15:58,eab90a3f-cad1-4639-8fce-a16e262d4586,-8946930.625,2943314.95,
242,1.4102E+11,7055,Young Women's Preparatory Academy, ,1150 SW 1st St, ,Miami,33130,305-575-1200,,S,12-Jun,374,346,C,25.77238,-80.21396,914842.1965,523732.2308,E316899,6/11/2020 9:42,E316899,4/5/2023 12:28,81365c99-826e-48ac-8838-a9b1d852374d,-8929377.504,2970916.543,
243,1.67824E+12,2001,Florida City Elementary, ,364 NW 6th Ave, ,Florida City,33034,305-247-4676,,E,PK-5,848,644,S,25.45201,-80.48621,825697.1877,406855.4376,E316899,6/11/2020 9:42,E316899,3/31/2023 15:48,1fc265ae-d983-4678-8dfb-abe2d645528d,-8959684.415,2931367.632,
244,3.0401E+12,1721,Everglades K-8 Center,Upper Academy,8300 SW 16th St, ,Miami-Dade,33155,305-264-4154,,U,0,502,361,C,25.75662,-80.32999,876690.4524,517794.588,E316899,6/11/2020 9:42,E316899,3/31/2023 15:44,27f9be3c-049d-4c45-8adb-f15fac72adb2,-8942292.453,2968968.973,
245,3.04011E+12,1081,Coral Terrace Elementary, ,6801 SW 24th St, ,Miami-Dade,33155,305-262-8300,,E,PK-5,614,483,C,25.74852,-80.3063,884497.6396,514890.0179,E316899,6/11/2020 9:42,E316899,3/24/2023 13:12,78de4029-0e59-4e02-9834-26e0421f9355,-8939657.187,2967967.566,
246,1.411E+11,6841,Shenandoah Middle, ,1950 SW 19th St, ,Miami,33145,305-856-8282,,M,8-Jun,1214,1290,C,25.75423,-80.227,910587.8597,517109.7145,E316899,6/11/2020 9:42,E316899,4/4/2023 15:26,6ba1a42e-24f1-474e-8b4c-5ef90a6aae01,-8930829.64,2968673.007,
247,3.03101E+12,8019,Dr. Marvin Dunn Academy For Community Education, ,8950 NW 2nd Ave, ,El Portal,33150,305-460-2946,,ALT,12-Sep,0,72,AC,25.85565,-80.20193,918616.5673,554025.2033,E316899,6/11/2020 9:42,E316899,3/24/2023 14:24,ce30248c-89cb-41d0-b6b6-9adeeb9a4bd6,-8928038.703,2981214.726,
248,3.0692E+12,9292,Transportation Redland Vehicle Maintenance,Redland,24600 SW 159th Ave, ,Miami-Dade,33031,(305) 248-4925,,A,0,0,0, ,25.53711,-80.44975,837600.7367,437832.0085,E316899,6/11/2020 9:42,E316899,4/5/2023 11:40,90742b60-d8b6-43d8-949d-f4efc69c8a55,-8955625.447,2941862.798,
249,4.2034E+11,5021,Ben Sheppard Elementary PLC-V, ,5601 W 24th Ave, ,Hialeah,33016,305-818-7984,,PLC,0,0,0,N,25.8738,-80.33084,876194.1066,560383.7948,E316899,6/11/2020 9:42,E316899,3/24/2023 12:30,ea5dcaad-1cab-4773-8721-11309ce56444,-8942387.059,2983459.567,
250,3.4211E+12,4301,Parkview Elementary, ,17631 NW 20th Ave, ,Miami Gardens,33056,305-625-1591,,E,PK-5,436,182,N,25.93554,-80.23445,907755.4998,582998.4375,E316899,6/11/2020 9:42,E316899,4/3/2023 14:47,bb3ab53d-24bd-4a9b-b6d3-3a92e93b8ac4,-8931657.722,2991100.407,
251,3.5303E+12,7261,School For Advanced Studies West,West Campus,3800 NW 115th Ave, ,Doral,33178,305-237-8000,,S,12-Nov,0,124,S,25.80833,-80.38456,858636.9374,536502.375,E316899,6/11/2020 9:42,E316899,4/4/2023 15:20,79a6dc6f-d78c-4b55-826c-38e753344756,-8948368.746,2975362.017,
252,4.2132E+11,6231,Hialeah Middle, ,6027 E 7th Ave, ,Hialeah,33013,305-681-3527,,M,8-Jun,955,960,N,25.87761,-80.26848,896686.9104,561878.4175,E316899,6/11/2020 9:42,E316899,3/17/2023 15:56,85c11eb2-b6e4-4ef3-a9b7-5a35281b8df3,-8935446.671,2983931.108,
253,1.3122E+11,7342,Miami Jackson Adult Education, ,1751 NW 36th St, ,Miami,33142,305-634-2621,,O,0,0,0,C,25.81028,-80.22614,910753.014,537485.7844,E316899,6/11/2020 9:42,E316899,4/3/2023 12:59,fad379a0-0c90-40ac-a652-868cf57e80d6,-8930733.302,2975602.984,
254,1.4106E+11,1881,Henry M. Flagler Elementary, ,5222 NW 1st St, ,Miami,33126,305-443-2529,,E,PK-5,938,775,C,25.77204,-80.28133,892670.4995,523483.7147,E316899,6/11/2020 9:42,E316899,4/3/2023 11:23,5ab3a423-6dcb-4892-b311-72e85526153d,-8936877.44,2970875.077,
255,3.42109E+12,3581,Myrtle Grove K-8 Center, ,3125 NW 176th St, ,Miami Gardens,33056,305-624-8431,,E,PK-8,735,286,N,25.93443,-80.25223,901912.7076,582561.9857,E316899,6/11/2020 9:42,E316899,4/3/2023 13:15,0d045b07-788e-4752-9699-21e317b004e6,-8933637.574,2990963.265,
256,3.05904E+12,7781,Felix Varela Senior High, ,15255 SW 96th St, ,Miami-Dade,33196,305-752-7900,,S,12-Sep,2818,2068,S,25.67781,-80.44282,839671.6113,488977.9636,E316899,6/11/2020 9:42,E316899,3/31/2023 15:46,abd51c57-b2d7-46d3-8c63-76d29fec4c3c,-8954853.755,2959231.297,
257,3.03115E+12,4501,Poinciana Park Elementary, ,6745 NW 23rd Ave, ,Miami-Dade,33147,305-691-5640,,E,PK-5,756,169,C,25.83601,-80.23487,907826.0966,546819.7283,E316899,6/11/2020 9:42,E316899,4/3/2023 14:53,194e3150-06b3-4f31-b539-11e13ff95434,-8931705.256,2978784.55,
258,3.05912E+12,1331,Devon Aire K-8 Center, ,10501 SW 122nd Ave, ,Miami-Dade,33186,305-274-7100,,E,PK-8,1391,1042,S,25.66904,-80.3915,856588.9996,485865.9795,E316899,6/11/2020 9:42,E316899,3/24/2023 14:09,c4f5d0d0-56f0-475f-b0b5-900c892a09e2,-8949140.703,2958148.423,
259,3.5302E+12,5101,John I. Smith Elementary PLC-A1, ,10415 NW 52nd St, ,Doral,33178,305-406-0220,,PLC,0,403,0,C,25.82051,-80.36469,865152.0581,540960.3511,E316899,6/11/2020 9:42,E316899,4/3/2023 12:04,47dcaa45-742c-42a9-905e-5546c34e905e,-8946157.033,2976868.181,
260,3.07904E+12,8981,South Dade Skill Center,Skills Center Campus,28300 SW 152nd Ave, ,Miami-Dade,33033,305-247-7839,,O,0,0,0,AC,25.50385,-80.43736,841736.3742,425761.6868,E316899,6/11/2020 9:42,E316899,4/4/2023 15:28,e4791cc7-8088-4069-804f-1bbfbf9181b2,-8954246.515,2937760.238,
261,3.02208E+12,7541,North Miami Beach Senior High, ,1247 NE 167th St, ,Miami-Dade,33162,305-949-8381,,S,12-Sep,2500,1141,N,25.92969,-80.17532,927200.9807,580989.9458,E316899,6/11/2020 9:42,E316899,4/3/2023 13:32,2370a30b-deb4-45eb-834b-6f9bb8b72a61,-8925075.709,2990376.237,
262,9.40251E+11,9018,Florida Diagnostic and Learning Resources System/South,Former JRE Lee Center,6521 SW 62nd Ave, ,South Miami,33143,305-274-3501,,SPC,0,0,0, ,25.70981,-80.29333,888844.9955,500845.7744,E316899,6/11/2020 9:42,E316899,3/31/2023 15:48,49ebb01c-c002-4c73-9898-e34b96519b8d,-8938212.425,2963185.02,
263,3.03116E+12,8016,TAP - Teenage Parent Program, ,6300 NW 27th Ave,ROOM 92,Miami-Dade,33147,305-636-7356,,S,0,0,0,AC,25.83278,-80.24172,905580.8537,545634.8307,E316899,6/11/2020 9:42,E316899,4/4/2023 15:46,a42788a9-072e-4c24-90ad-15abb163bd8f,-8932467.415,2978385.794,
264,6.223E+11,7591,North Miami Senior High, ,13110 NE 8th Ave, ,North Miami,33161,305-891-6590,,S,12-Sep,2766,1728,N,25.89694,-80.1833,924652.8735,569070.3136,E316899,6/11/2020 9:42,E316899,4/3/2023 13:33,8d4359c9-18fc-4467-bca6-65b80a6a3025,-8925963.87,2986323.19,
265,1.3136E+11,6921,Lamar Louise Curry Middle, ,15750 SW 47th St, ,Miami-Dade,33185,305-222-2775,,M,8-Jun,1060,835,S,25.72024,-80.44895,837587.0878,504389.779,E316899,6/11/2020 9:42,E316899,4/3/2023 12:30,34de945a-cc12-4402-b4c2-ebc9e8de5caf,-8955536.58,2964472.757,
266,3.05009E+12,7361,Miami Killian Senior High, ,10655 SW 97th Ave, ,Miami-Dade,33176,305-271-3311,,S,12-Sep,3139,1024,S,25.67009,-80.35078,869996.6648,486311.8004,E316899,6/11/2020 9:42,E316899,4/3/2023 13:00,96e6f52a-6ead-40f0-aeb6-aaa2a643b2a3,-8944608.689,2958278.256,
267,3.05011E+12,7431,Miami Palmetto Senior High, ,7431 SW 120th St, ,Miami,33156,305-235-1360,,S,12-Sep,2713,2625,S,25.6608,-80.31571,881568.6451,482991.505,E316899,6/11/2020 9:42,E316899,6/5/2024 12:57,30b2ea64-f563-4517-b9ed-b15a5a563d6a,-8940703.605,2957130.202,
268,3.0311E+12,2981,Liberty City Elementary, ,1855 NW 71st St, ,Miami-Dade,33147,305-691-8532,,E,PK-5,830,274,C,25.8394,-80.22813,910036.5071,548065.5366,E316899,6/11/2020 9:42,E316899,4/3/2023 12:34,b6656f87-c481-48bc-b64e-5b5629c0ac07,-8930954.724,2979204.073,
269,2.05011E+12,7432,Miami Palmetto Adult Education, ,7431 SW 120th St, ,Miami,33156,305-235-1360,,O,0,0,0, ,25.6608,-80.31571,881568.6451,482991.505,E316899,6/11/2020 9:42,E316899,6/5/2024 12:55,0f1dcba0-447f-48b0-9e50-12443fdf54bd,-8940703.605,2957130.202,
270,3.04928E+12,451,Doolin/Bowman Foster Ashe Elementary,Main Campus,6601 SW 152nd Ave, ,Miami-Dade,33193,305-386-6667,,E,PK-8,1366,878,S,25.70432,-80.44172,839992.5593,498613.608,E316899,6/11/2020 9:42,E316899,3/24/2023 14:11,355d19af-3745-42ff-b2c1-cbdda2a4b590,-8954731.52,2962505.782,
271,7.2208E+11,2281,Greynolds Park Elementary PLC-C, ,1575 NE 177th St, ,North Miami Beach,33162,305-354-3208,,PLC,0,0,0,N,25.93882,-80.16913,929216.0131,584319.2188,E316899,6/11/2020 9:42,E316899,4/3/2023 11:18,de244ee8-564d-427b-8bbf-65b1d25bf056,-8924386.093,2991505.671,
272,3.03111E+12,101,Arcola Lake Elementary, ,1037 NW 81st St, ,Miami-Dade,33150,305-836-2820,,E,PK-5,760,535,C,25.84918,-80.21403,914656.6113,551648.9722,E316899,6/11/2020 9:42,E316899,3/23/2023 15:52,6597746e-b0b4-4e5f-b745-853d982dd443,-8929383.874,2980414.179,
273,1.07918E+12,7551,School For Advanced Studies Homestead,Homestead,500 College Ter, ,Homestead,33030,305-237-5062,,S,12-Nov,0,135,S,25.47421,-80.47443,829551.8937,414938.283,E316899,6/11/2020 9:42,E316899,4/4/2023 15:19,3b1d2321-f16b-49fe-94a7-720134dbeb6d,-8958373.238,2934104.592,
274,1.31361E+11,9797,Chapman House, ,526 NW 13th St, ,Miami,33136,305-416-1072,,O,0,0,0, ,25.78648,-80.20375,918172.2301,528877.4434,E316899,6/11/2020 9:42,E316899,3/24/2023 12:58,de25a3a4-2849-4efe-8b9b-0382c8645576,-8928240.628,2972659.682,
275,3.02133E+12,8211,Nathaniel Traz Powell Football Stadium, ,11380 NW 27th Ave, ,Miami-Dade,33167,305-688-5490,,O,0,0,0, ,25.87227,-80.24712,903721.0754,559977.4652,E316899,6/11/2020 9:42,E316899,4/3/2023 13:16,3366f6b8-338c-4937-97df-c2f40eba6a65,-8933068.982,2983270.517,
276,1.01071E+11,7033,Law Enforcement Officers Memorial Senior High, ,300 NW 2nd Ave, ,Miami,33128,305-371-0400,,S,12-Sep,320,280,C,25.77727,-80.1982,920016.6648,525542.4004,E316899,6/11/2020 9:42,E316899,4/3/2023 12:30,9828ee5c-a3dc-4d96-872a-8a5afaa3fcba,-8927623.558,2971521.573,
277,3.05022E+12,2541,Howard Drive Elementary, ,7750 SW 136th St, ,Palmetto Bay,33156,305-235-1412,,E,PK-5,771,376,S,25.64398,-80.31886,880561.8682,476873.9754,E316899,6/11/2020 9:42,E316899,3/17/2023 16:06,dd8109ee-db8d-42e3-a27b-847717016ff1,-8941054.47,2955053.464,
278,3.412E+11,7072,Coral Gables Adult Education, ,450 Bird Rd, ,Coral Gables,33146,305-443-4871,,O,0,0,0, ,25.73335,-80.26371,898549.6548,509451.8516,E316899,6/11/2020 9:42,E316899,3/24/2023 13:08,18af5264-2e1a-4e9c-80d5-5f56567de7c4,-8934915.342,2966092.651,
279,1.07814E+12,5791,West Homestead K-8 Center, ,1550 SW 6th St, ,Homestead,33030,305-248-0812,,E,PK-8,981,839,S,25.46397,-80.49534,822668.472,411188.6725,E316899,6/11/2020 9:42,E316899,4/5/2023 11:46,ac9eb177-e6fb-4931-92a5-4a46db973444,-8960700.649,2932841.523,
280,1.3136E+11,1361,Frederick Douglass Elementary, ,314 NW 12th St, ,Miami,33136,305-371-4687,,E,PK-5,275,216,C,25.78532,-80.20082,919138.955,528463.5401,E316899,6/11/2020 9:42,E316899,3/31/2023 15:51,8df020a1-577f-40f1-9851-4efee5d1e259,-8927914.453,2972516.91,
281,4.31061E+11,7112,Hialeah Adult Education Center, ,251 E 47th St, ,Hialeah,33013,305-822-1500,,O,0,0,0, ,25.86554,-80.27553,894393.6606,557478.0737,E316899,6/11/2020 9:42,E316899,3/17/2023 15:42,f6c12dc7-b65b-4e4f-a601-9e3a5f1c21fd,-8936231.262,2982437.665,
282,3.41134E+12,8151,Robert Renick Education Center, ,2201 NW 207th St, ,Miami Gardens,33056,305-624-1171,,SPC,12-Mar,0,42,N,25.96501,-80.23892,906222.6186,593699.6141,E316899,6/11/2020 9:42,E316899,4/3/2023 15:10,3f77398c-63cc-4494-ad00-d9b714da4271,-8932155.852,2994748.237,
283,3.42104E+12,7231,Miami Carol City Senior High, ,3301 Miami Gardens Dr, ,Miami Gardens,33056,305-621-5681,,S,12-Sep,2701,791,N,25.94091,-80.25738,900208.0765,584906.896,E316899,6/11/2020 9:42,E316899,4/3/2023 12:55,cdbfb071-31c8-42ea-886d-bfc84a8870de,-8934210.442,2991765.156,
285,3.0592E+12,6771,Jorge Mas Canosa Middle, ,15735 SW 144th St, ,Miami-Dade,33196,305-252-5900,,M,8-Jun,1974,1395,S,25.63325,-80.44797,838042.5517,472774.9579,E316899,6/11/2020 9:42,E316899,4/3/2023 12:05,9875cd81-cab5-4cfa-ba82-c19a3f9a2e89,-8955427.208,2953728.18,
286,4.3012E+11,6171,Henry H. Filer Middle, ,531 W 29th St, ,Hialeah,33012,305-822-6601,,M,8-Jun,1150,687,N,25.84848,-80.29334,888570.8178,551244.6816,E316899,6/11/2020 9:42,E316899,4/3/2023 11:23,3e3497f0-572b-41b4-a496-73bfecdf1bc0,-8938213.719,2980327.014,
287,3.413E+11,7571,International Studies Preparatory Academy, ,1570 Madruga Ave, ,Coral Gables,33146,305-663-7200,,S,12-Sep,422,378,C,25.70712,-80.28444,891777.3155,499881.4685,E316899,6/11/2020 9:42,E316899,4/3/2023 11:39,0ecea51b-5615-4cb5-9cbc-27fbf4b87fa6,-8937222.858,2962851.869,
288,3.02135E+12,2821,Lakeview Elementary, ,1290 NW 115th St, ,Miami-Dade,33167,305-757-1535,,E,PK-5,500,394,C,25.87943,-80.22021,912553.6415,562629.1772,E316899,6/11/2020 9:42,E316899,4/3/2023 12:27,05455ac3-ec9c-4675-a4fa-4e94889d57cb,-8930073.581,2984155.57,
289,3.04031E+12,8181,Ruth Owens Kruse Educational Center, ,11001 SW 76th St, ,Miami-Dade,33173,305-270-8699,,SPC,12-Mar,0,99,S,25.69832,-80.3729,862663.159,496535.2413,E316899,6/11/2020 9:42,E316899,4/4/2023 15:15,92909b52-8f96-48ca-aaa8-16aa8161ed20,-8947070.761,2961764.765,
290,2.3222E+11,3741,North Beach Elementary, ,4100 Prairie Ave, ,Miami Beach,33140,305-531-7666,,E,PK-5,891,944,N,25.81447,-80.13067,942153.7395,539202.8791,E316899,6/11/2020 9:42,E316899,4/3/2023 13:24,a4662d2d-7745-4164-bb42-9b9bcdbe1f5d,-8920105.148,2976120.436,
291,4.2036E+11,6681,Palm Springs Middle, ,1025 W 56th St, ,Hialeah,33012,305-821-2460,,M,8-Jun,1354,835,N,25.87382,-80.30521,884617.7484,560435.7738,E316899,6/11/2020 9:42,E316899,4/3/2023 14:43,6c2e701f-a3cf-4ef0-82a0-b973e1df09c0,-8939535.24,2983462.365,
292,3.02134E+12,4491,Henry E. S. Reeves K-8 Center Lower Academy,Former Miami Park Elementary,2225 NW 103rd St, ,Miami-Dade,33147,305-691-6361,,E,PK-8,597,0,C,25.86867,-80.23595,907403.6208,558687.5941,E316899,6/11/2020 9:42,E316899,4/3/2023 11:22,141ffe5f-56c7-42f1-885e-7112dd61f046,-8931824.876,2982824.243,
293,3.04031E+12,9732,Brucie Ball Educational Center, ,11001 SW 76th St, ,Miami-Dade,33173,305-514-5100,,SPC,PK-12,0,433,S,25.69832,-80.3729,862663.159,496535.2413,E316899,6/11/2020 9:42,E316899,3/24/2023 12:48,9b957cee-f879-4eae-a2b4-f2424c5491df,-8947070.761,2961764.765,
294,3.02001E+12,2181,Joella C. Good Elementary, ,6350 NW 188th Ter, ,Miami-Dade,33015,305-625-2008,,E,PK-5,963,946,N,25.94422,-80.30313,885168.6103,586026.8374,E316899,6/11/2020 9:42,E316899,11/18/2021 14:16,f76ad9c1-0956-4463-9804-fe5903db7d9b,-8939302.708,2992174.734,
295,3.03103E+12,7602,William H. Turner Technical Adult Education, ,10151 NW 19th Ave, ,Miami-Dade,33147,305-691-8324,,O,0,0,0, ,25.86809,-80.22919,909624.6853,558490.3663,E316899,6/11/2020 9:42,E316899,4/5/2023 12:00,80a73149-906f-49d5-8199-db385a3ddf38,-8931073.399,2982752.696,
296,1.02081E+11,5321,Southside Preparatory Academy, ,45 SW 13th St, ,Miami,33130,305-371-3311,,E,PK-8,887,945,C,25.76188,-80.19444,921288.0002,519957.1245,E316899,6/11/2020 9:42,E316042,6/25/2024 15:40,92021d4c-4279-46c1-8115-096797286e98,-8927205.071,2969619.486,
297,6.2221E+11,5005,David Lawrence Jr. K-8 Center, ,15000 Bay Vista Blvd, ,North Miami,33181,305-354-2600,,E,PK-8,1367,1320,N,25.91385,-80.14553,937030.9171,575294.2919,E316899,6/11/2020 9:42,E316899,3/24/2023 14:04,73c848e4-82d6-49d4-8be9-7ed72d3e57aa,-8921759.029,2988415.372,
298,3.07908E+12,651,Campbell Drive K-8 Center, ,15790 SW 307th St, ,Miami-Dade,33033,305-245-0270,,E,PK-8,1188,968,S,25.48148,-80.44588,838960.9379,417618.4059,E316899,6/11/2020 9:42,E316899,3/24/2023 12:50,736d9bca-082a-4cfe-9806-71938f5f37a1,-8955194.672,2935000.976,
299,1.4121E+11,841,Coconut Grove Elementary, ,3351 Matilda St, ,Miami,33133,305-445-7876,,E,PK-5,458,543,C,25.72889,-80.24313,905331.9209,507869.4498,E316899,6/11/2020 9:42,E316899,3/24/2023 13:06,433e2384-0e88-4a82-99c5-91f9aa50dbf5,-8932625.09,2965541.625,
300,3.05911E+12,6021,Arvida Middle, ,10900 SW 127th Ave, ,Miami-Dade,33186,305-385-7144,,M,8-Jun,1138,1044,S,25.66654,-80.40116,853409.1253,484940.6183,E316899,6/11/2020 9:42,E316899,3/23/2023 15:53,22f413fb-52f1-48b6-9d4e-573206c74bf3,-8950216.8,2957838.907,
301,3.05905E+12,2521,Oliver Hoover Elementary PLC-U, ,15700 SW 96th St, ,Miami-Dade,33196,305-383-0915,,PLC,0,0,0,S,25.67673,-80.44975,837389.8385,488574.1428,E316899,6/11/2020 9:42,E316899,4/3/2023 13:38,d3383fc5-8230-41cd-aa14-373283a641d4,-8955625.542,2959097.31,
302,3.0402E+12,5521,Tropical Elementary, ,4545 SW 104th Ave, ,Miami-Dade,33165,305-221-0284,,E,PK-5,802,418,S,25.72534,-80.36307,865853.1299,506370.917,E316899,6/11/2020 9:42,E316899,4/5/2023 11:41,606c05d4-be51-45f7-8085-3fffb42f65f1,-8945976.374,2965103.035,
303,3.66005E+12,6111,Cutler Bay Middle, ,19400 Gulfstream Rd, ,Cutler Bay,33157,305-235-4761,,M,8-Jun,965,1060,S,25.5872,-80.34894,870751.5,456188.6871,E316899,6/11/2020 9:42,E316899,3/24/2023 13:15,2cfdcbfa-a1c5-41df-b61b-38f3316e00ea,-8944403.621,2948044.25,
304,3.04926E+12,6441,Howard D. Mcmillan Middle, ,13100 SW 59th St, ,Miami-Dade,33183,305-385-6877,,M,8-Jun,1227,891,S,25.71243,-80.40589,851777.3749,501612.6245,E316899,6/11/2020 9:42,E316899,3/17/2023 16:06,95811aa8-9da3-496b-8169-7e2d712b68ef,-8950742.933,2963507.749,
305,3.42104E+12,461,Brentwood Elementary PLC-D1, ,3101 NW 191st St, ,Miami Gardens,33056,305-624-2657,,PLC,0,0,0,N,25.94839,-80.25273,901719.8121,587634.563,E316899,6/11/2020 9:42,E316899,3/24/2023 12:46,e6db5344-053c-4290-8ab4-f46b3dee01d6,-8933693.106,2992691.222,
306,3.02106E+12,2801,Lake Stevens Elementary, ,5101 NW 183rd St, ,Miami-Dade,33055,305-625-6536,,E,PK-5,476,266,N,25.94017,-80.28517,891078.8736,584584.7792,E316899,6/11/2020 9:42,E316899,4/3/2023 12:26,6c6463c6-1e2b-4007-91a2-6e58a68dd816,-8937303.345,2991672.751,
307,4.2036E+11,5601,Twin Lakes Elementary, ,6735 W 5TH Pl, ,Hialeah,33012,305-822-0770,,E,PK-5,668,286,N,25.88315,-80.29464,888074.2392,563843.9249,E316899,6/11/2020 9:42,E316899,4/5/2023 11:41,08c79afa-f379-484b-be17-e8f49029000b,-8938358.889,2984616.217,
308,3.4108E+11,961,Coral Gables Preparatory Academy MLC,Merredick Site,39 Zamora Ave, ,Coral Gables,33134,305-448-1731,,E,PK-8,378,868,C,25.75694,-80.25603,901027.6958,518041.0692,E316899,6/11/2020 9:42,E316899,3/24/2023 13:09,78384573-cfae-4508-b6ff-40adc15cab1c,-8934061.047,2969008.411,
309,3.53018E+12,71,Eugenia B. Thomas K-8 Center, ,5950 NW 114th Ave, ,Doral,33178,305-592-7914,,E,PK-8,1421,1170,C,25.8277,-80.38264,859234.937,543545.3746,E316899,6/11/2020 9:42,E316899,3/31/2023 15:42,b0f68daf-b18f-492d-9c12-618c38298c8e,-8948155.226,2977757.319,
310,2.23003E+12,9236,Transportation Center Northwest,Northwest,9900 NW South River Drive, ,Medley,33166,305-887-2383,,A,0,0,0, ,25.86323,-80.3373,874083.7086,556529.2533,E316899,6/11/2020 9:42,E316899,4/5/2023 11:36,1924b544-81e6-4349-bd27-0a4b6fe694b8,-8943108.098,2982151.232,
311,3.05003E+12,9575,South Region Office Annex, ,9040 SW 79th Ave, ,Miami-Dade,33156,305-595-7022,,A,0,0,0, ,25.68584,-80.32359,878926.4227,492081.2335,E316899,6/11/2020 9:42,E316899,4/4/2023 15:32,c79dd6f2-68d1-40c2-b373-ecb662b3b8a0,-8941580.793,2960223.698,
312,3.05006E+12,7091,School For Advanced Studies South,South MDC-Kendall,11011 SW 104th St, ,Miami-Dade,33176,305-237-0510,,S,12-Nov,0,281,S,25.67516,-80.37414,862295.1961,488115.131,E316899,6/11/2020 9:42,E316899,4/4/2023 15:19,fd2bed39-2fe4-4fc0-bcd7-b30797413e3b,-8947208.626,2958903.683,
313,2.45205E+12,2741,Key Biscayne K-8 Center, ,150 W McIntyre St, ,Key Biscayne,33149,305-361-5418,,E,PK-8,1150,928,C,25.69081,-80.16677,930560.0205,494180.6521,E316899,6/11/2020 9:42,E316899,4/3/2023 12:24,9fea3bea-cd24-4361-99ad-3f9842b89b24,-8924124.22,2960836.983,
314,3.06009E+12,5981,Dr. Edward L. Whigham Elementary,Main Campus,21545 SW 87th Ave, ,Cutler Bay,33189,305-234-4840,,E,PK-5,898,677,S,25.5648,-80.33103,876695.9377,448075.0211,E316899,6/11/2020 9:42,E316899,3/24/2023 14:12,d396d6f6-8245-4574-9127-fa343d2cae0d,-8942409.823,2945279.219,
315,1.07812E+12,7171,Medical Academy For Science And Technology, ,1220 NW 1st Ave, ,Homestead,33030,305-257-4500,,S,12-Sep,1108,690,S,25.48237,-80.48058,827513.9985,417895.9654,E316899,6/11/2020 9:42,E316899,4/3/2023 12:51,849b096c-d07a-4a35-beee-fe2d79bbf209,-8959056.976,2935110.805,
316,1.4102E+11,4681,Riverside Elementary, ,1190 SW 2nd St, ,Miami,33130,305-547-1520,,E,PK-5,856,1010,C,25.7714,-80.21366,914944.5675,523376.2768,E316899,6/11/2020 9:42,E316899,4/3/2023 15:07,ef04d93b-9d2a-429c-b89d-73a3ee120553,-8929343.596,2970795.279,
317,3.05906E+12,3031,Kendall Square K-8 Center, ,9325 SW 169th Pl, ,Miami-Dade,33196,305-382-6830,,E,K-6,675,468,S,25.67845,-80.46642,831897.1237,489177.6021,E316899,6/11/2020 9:42,E316899,4/3/2023 15:38,d6956538-de01-4700-8069-e3c40a5c7520,-8957481.194,2959310.041,
318,1.4002E+11,9181,Stores And Distribution Complex, ,7001 SW 4th St, ,Miami,33144,786-275-0602,,A,0,0,0, ,25.7688,-80.30861,883699.126,522257.2304,E316899,6/11/2020 9:42,E316899,4/4/2023 15:39,2fb7afe4-e284-44fd-a644-64597977958b,-8939914.164,2970474.284,
319,3.22013E+12,6501,Miami Lakes Middle, ,6425 Miami Lakeway N, ,Miami Lakes,33014,305-557-3900,,M,8-Jun,990,1020,N,25.91837,-80.30579,884340.3561,576625.657,E316899,6/11/2020 9:42,E316899,4/3/2023 13:03,55116791-cc4a-42b9-ae7f-536ec1554e96,-8939600.144,2988974.679,
320,4.2036E+11,1481,John G. Dupuis Elementary, ,1150 W 59th Pl, ,Hialeah,33012,305-821-6361,,E,PK-5,623,521,N,25.87605,-80.30615,884305.2912,561244.4863,E316899,6/11/2020 9:42,E316899,4/3/2023 12:03,4d4bf65a-2e42-461b-b012-9fcb626d3011,-8939639.572,2983738.204,
321,1.4115E+11,5041,Silver Bluff Elementary, ,2609 SW 25th Ave, ,Miami,33133,305-856-5197,,E,PK-5,629,406,C,25.74345,-80.23552,907810.3611,513178.1121,E316899,6/11/2020 9:42,E316899,4/4/2023 15:26,448b56bc-a966-459d-b5bf-51721b154afb,-8931776.677,2967341.664,
322,3.04005E+12,5381,E.W.F. Stirrup Elementary, ,330 NW 97th Ave, ,Miami-Dade,33172,305-226-7001,,E,PK-5,916,680,C,25.77,-80.35392,868786.4934,522617.0274,E316899,6/11/2020 9:42,E316899,3/24/2023 14:52,494ce30e-d3cd-4eb7-9731-845ebb5709c2,-8944957.637,2970622.383,
323,3.05904E+12,6221,Hammocks Middle, ,9889 Hammocks Blvd, ,Miami-Dade,33196,305-385-0896,,M,8-Jun,1504,571,S,25.67424,-80.44275,839699.173,487679.7126,E316899,6/11/2020 9:42,E316899,4/3/2023 11:20,2eea174c-3594-41a3-921c-b39578802c19,-8954846.288,2958790.065,
324,3.07802E+12,5003,South Dade Middle, ,29100 SW 194th Ave, ,Miami-Dade,33030,305-224-5200,,M,8-Apr,1478,1284,S,25.49602,-80.50638,818981.8285,422823.817,E316899,6/11/2020 9:42,E316899,4/4/2023 15:27,2353fa5f-d7d4-40f8-84fe-98eb7dc8733d,-8961929.952,2936793.926,
325,3.04023E+12,7721,South Miami Senior High, ,6856 SW 53rd St, ,Miami-Dade,33155,305-666-5871,,S,12-Sep,2476,1539,C,25.72074,-80.30529,884884.366,504796.9534,E316899,6/11/2020 9:42,E316899,4/4/2023 15:31,984d1f2a-fa81-4090-af18-1326867eee5c,-8939544.374,2964535.316,
326,8.2122E+11,5971,Nathan B. Young Elementary, ,14120 NW 24th Ave, ,Opa-Locka,33054,305-685-7204,,E,PK-5,482,344,N,25.90396,-80.23995,906012.2624,571508.9243,E316899,6/11/2020 9:42,E316899,4/3/2023 13:16,2b6bea5f-66db-4257-b173-d52c0e3e8063,-8932270.738,2987191.568,
327,3.0503E+12,861,Johnnie M. Parris Colonial Drive Elementary, ,10755 SW 160th St, ,Miami-Dade,33157,305-238-2392,,E,PK-5,460,306,S,25.62125,-80.36693,864761.9138,468532.6045,E316899,6/11/2020 9:42,E316899,7/14/2023 11:58,dca1d5b2-e799-4c8f-9c17-89f8083194e9,-8946406.582,2952246.463,
328,3.04019E+12,1281,Cypress K-8 Center, ,5400 SW 112th Ct, ,Miami-Dade,33165,305-271-1611,,E,PK-8,495,399,S,25.71691,-80.37637,861493.8539,503287.6253,E316899,6/11/2020 9:42,E316899,3/24/2023 13:17,584a68ac-35eb-40d7-91d6-e5f805f950d3,-8947455.26,2964061.921,
329,3.02128E+12,9251,Maintenance Service Center 1,Main Center,12525 NW 28th Ave, ,Miami-Dade,33167,305-995-7900,,A,0,0,0, ,25.88839,-80.24461,904516.2657,565840.8004,E316899,6/11/2020 9:42,E316899,4/3/2023 12:41,6ac4f936-a1fa-4373-b8db-591988883aa1,-8932788.363,2985264.834,
330,3.0201E+12,4281,Palm Springs North Elementary, ,17615 NW 82nd Ave, ,Miami-Dade,33015,305-821-4631,,E,PK-5,1603,1099,N,25.93463,-80.33397,875049.4574,582487.5888,E316899,6/11/2020 9:42,E316899,4/3/2023 14:44,3b1dc3c1-002b-472a-87f1-e3246c489019,-8942736.565,2990987.295,
331,3.04922E+12,251,Ethel Koger Beckham K-8 Center, ,4702 SW 143rd Ct, ,Miami-Dade,33175,305-222-8161,,E,PK-8,993,851,S,25.72182,-80.42589,845177.2077,504998.4106,E316899,6/11/2020 9:42,E316899,3/31/2023 15:42,0a306856-a581-4140-a3bd-1b8fcda09ebb,-8952969.388,2964668.672,
332,4.3012E+11,481,J.W. Johnson Elementary/James H. Bright Elementary, ,735 W 23rd St, ,Hialeah,33010,305-883-1357,,E,PK-5,144,0,N,25.84289,-80.29701,887373.7377,549206.2056,E316899,6/11/2020 9:42,E316899,11/18/2021 14:15,bc53e127-9a00-44ed-99b4-2f47e23f177a,-8938622.579,2979635.496,
333,3.0502E+12,7101,Coral Reef Senior High, ,10101 SW 152nd St, ,Miami-Dade,33157,305-232-2044,,S,12-Sep,2643,3205,S,25.62972,-80.35682,868078.5704,471628.7839,E316899,6/11/2020 9:42,E316899,3/24/2023 13:11,bb3739c6-7c24-480b-9b24-0fa06115cfdc,-8945281.049,2953292.776,
334,6.2222E+11,7031,MAST @ FIU Biscayne Bay Campus,Biscayne Bay Campus,3000 NE 151st St, ,North Miami,33181,305-919-4450,,S,12-Sep,500,444,N,25.91024,-80.13947,939028.4542,573996.8816,E316899,6/11/2020 9:42,E316899,4/3/2023 12:46,90528420-83d8-49dc-bc18-dda83e0b27c7,-8921085.47,2987969.181,
335,3.35028E+12,4381,Dr. Henry E. Perrine Academy of the Arts, ,8851 SW 168th St, ,Palmetto Bay,33157,305-235-2442,,E,K-5,840,550,S,25.61537,-80.33586,875012.1256,466447.9376,E316899,6/11/2020 9:42,E316899,3/24/2023 14:15,efc4e205-79e9-4523-a47d-be8f6113a21f,-8942947.327,2951521.325,
336,6.223E+11,7592,North Miami Adult Education, ,13110 NE 8th Ave, ,North Miami,33161,305-981-6774,,O,0,0,0, ,25.89694,-80.1833,924652.8735,569070.3136,E316899,6/11/2020 9:42,E316899,4/3/2023 13:32,626ad371-2f15-4fa6-8be3-873d9e8eed5a,-8925963.87,2986323.19,
337,3.02208E+12,6301,John F. Kennedy Middle, ,1075 NE 167th St, ,Miami-Dade,33162,305-947-1451,,M,8-Jun,1358,1082,N,25.92981,-80.17862,926114.4453,581024.1527,E316899,6/11/2020 9:42,E316899,7/14/2023 12:57,ce5ca0af-063c-4708-b90d-f07cca5fab11,-8925443.632,2990390.21,
338,1.4002E+11,9231,Transportation Center Central East,Central East,7011 SW 4th St, ,Miami,33144,305-227-1995,,A,0,0,0, ,25.76729,-80.3093,883475.3331,521709.2568,E316899,6/11/2020 9:42,E316899,4/5/2023 11:33,d25c6291-0ce0-4206-a52f-bc9c3ceda6c2,-8939990.831,2970288.325,
339,1.4104E+11,121,Auburndale Elementary PLC-H1, ,3255 SW 6th St, ,Miami,33135,305-445-3587,,PLC,0,0,0,C,25.7672,-80.25064,902780.9651,521780.2599,E316899,6/11/2020 9:42,E316899,3/24/2023 11:13,bcc69fd6-3087-4801-b6dd-f641d71bf57a,-8933460.899,2970276.602,
340,3.05014E+12,6701,Palmetto Middle, ,7351 SW 128th St, ,Pinecrest,33156,305-238-3911,,M,8-Jun,1202,832,S,25.65233,-80.3126,882607.18,479920.4301,E316899,6/11/2020 9:42,E316899,4/3/2023 14:46,1007c46a-edc1-40d7-97cc-ed74e44079c3,-8940358.039,2956084.904,
341,1.01091E+11,7901,New World School of the Arts, ,25 NE 2nd St, ,Miami,33132,305-237-3135,,S,12-Sep,420,456,C,25.77638,-80.19321,921663.5625,525228.625,E316899,6/11/2020 9:42,E316899,4/3/2023 13:20,576dc492-9018-4a79-aca9-4b85f4c6ebad,-8927067.137,2971411.438,
342,3.05904E+12,2521,Oliver Hoover Elementary, ,9050 Hammocks Blvd, ,Miami-Dade,33196,305-385-4382,,E,PK-5,854,660,S,25.68163,-80.43632,841805.7755,490374.7441,E316899,6/11/2020 9:42,E316899,4/3/2023 13:37,670f2855-552c-41ad-8970-a894326e0188,-8954130.415,2959702.913,
343,3.05007E+12,2891,William Lehman Elementary, ,10990 SW 113th Pl, ,Miami-Dade,33176,305-273-2140,,E,PK-5,935,567,S,25.66708,-80.37984,860430.4639,485169.2045,E316899,6/11/2020 9:42,E316899,4/5/2023 12:10,8fad28a7-2d2e-4e5c-ba84-d9ac2faf148a,-8947843.536,2957905.589,
344,1.41031E+11,801,Citrus Grove K-8 Center, ,2121 NW 5th St, ,Miami,33125,305-642-4141,,E,PK-8,2383,1700,C,25.77852,-80.23062,909347.9933,525932.1875,E316899,6/11/2020 9:42,E316042,6/25/2024 15:30,2a142148-04eb-4319-ac5c-911e0efde142,-8931231.535,2971675.779,
345,1.0202E+11,3191,Ada Merritt K-8 Center, ,660 SW 3rd St, ,Miami,33130,305-326-0791,,E,K-8,707,740,C,25.77055,-80.20483,917851.1557,523087.6148,E316899,6/11/2020 9:42,E316899,3/23/2023 15:20,c0e15fcc-e168-4bb8-be63-8676e01eada9,-8928361.064,2970691.177,
346,1.3123E+11,6011,Georgia Jones-Ayers Middle, ,1331 NW 46th St, ,Miami,33142,305-634-9787,,M,8-Jun,1154,552,C,25.81764,-80.21882,913144.7629,540173.8113,E316899,6/11/2020 9:42,E316899,3/31/2023 15:55,62431d83-1136-4f93-9420-abbcdc48c6f4,-8929918.652,2976512.666,
347,3.0401E+12,1721,Everglades K-8 Center,Lower Academy,8375 SW 16th St, ,Miami-Dade,33155,305-264-4154,,E,PK-8,691,626,C,25.75539,-80.33147,876200.8952,517345.5458,E316899,6/11/2020 9:42,E316899,3/17/2023 15:17,82a81e5f-3a62-43cd-9701-49772ea52627,-8942458.795,2968817.12,
348,3.01232E+12,2581,Madie Ives K-8 Preparatory Academy, ,20770 NE 14th Ave, ,Miami-Dade,33179,305-651-3155,,E,PK-8,1050,1037,N,25.9672,-80.17468,927326.624,594623.1254,E316899,6/11/2020 9:42,E316899,4/3/2023 12:39,769ca9fb-39fc-47c7-8976-d0b752a4cb67,-8925004.05,2995019.244,
349,1.32227E+12,241,Ruth K. Broad/Bay Harbor K-8 Center, ,1155 93rd St, ,Bay Harbor Islands,33154,305-865-7912,,E,PK-8,1327,1261,N,25.88414,-80.13211,941512.5348,564523.6005,E316899,6/11/2020 9:42,E316899,4/3/2023 15:25,769c0cda-f0d1-4cb6-aed5-d01fe7a07783,-8920265.515,2984738.551,
350,3.0311E+12,5861,Dr. Henry W. Mack/West Little K-8 Center, ,2450 NW 84th St, ,Miami-Dade,33147,305-691-6491,,E,PK-8,588,429,C,25.85037,-80.23884,906491.0192,552033.5215,E316899,6/11/2020 9:42,E316899,3/24/2023 14:19,bff4657f-7f06-4ab2-85f5-84471f7126ca,-8932146.861,2980561.405,
351,3.04029E+12,5121,Snapper Creek Elementary, ,10151 SW 64th St, ,Miami-Dade,33173,305-271-2111,,E,PK-5,686,389,S,25.70893,-80.35788,867591.1249,500415.143,E316899,6/11/2020 9:42,E316899,4/4/2023 15:26,4014ab7a-8a88-4416-a537-5f5c7656022f,-8945398.517,2963075.53,
352,1.3113E+11,1601,Edison Park K-8 Center, ,500 NW 67th St, ,Miami,33150,305-758-3658,,E,PK-8,614,440,C,25.83576,-80.20478,917725.7497,546787.001,E316899,6/11/2020 9:42,E316899,3/24/2023 15:51,de2226db-e4f6-41fd-92de-c615bdfc725b,-8928355.05,2978753.424,
353,3.03115E+12,4071,Agenoria S. Paschal/ Olinda Elementary School, ,5536 NW 21st Ave, ,Miami-Dade,33142,305-633-0308,,E,PK-5,560,299,C,25.82589,-80.23118,909060.3123,543151.0511,E316899,6/11/2020 9:42,E316899,3/23/2023 15:21,f9db4574-63fe-4cf6-9eb3-8729e02a8ead,-8931294.827,2977533.804,
354,4.2034E+11,7291,Jose Marti Mathematics & Science Technology Academy, ,5701 W 24th Ave, ,Hialeah,33016,305-557-5931,,S,12-Jun,1094,892,N,25.87485,-80.33053,876289.6808,560764.3987,E316899,6/11/2020 9:42,E316899,4/3/2023 12:07,d76b4179-4c9e-4c38-bbf2-58f736886b54,-8942354.047,2983588.954,
355,3.02124E+12,6281,Thomas Jefferson Biscayne Gardens K-8 Academy, ,525 NW 147th St, ,Miami-Dade,33168,305-681-7481,,E,PK-8,1329,799,N,25.90989,-80.20812,916464,573726.5622,E316899,6/11/2020 9:42,E316042,6/25/2024 15:32,649a8242-911a-45d0-8e75-0548eac81de0,-8928727.065,2987925.555,
356,3.02128E+12,9239,Transportation Center John H Schee,John H Schee,2755 NW 122nd St, ,Miami-Dade,33167,305-681-1576,,A,0,0,0, ,25.8861,-80.2439,904752.6451,565008.4417,E316899,6/11/2020 9:42,E316899,4/5/2023 11:34,a885eedc-0083-4fe1-836e-6843487978c1,-8932709.955,2984981.021,
357,3.06935E+12,41,Air Base K-8 Center for International Education, ,12829 SW 272nd St, ,Miami-Dade,33032,305-258-3676,,E,PK-8,1268,1101,S,25.51481,-80.39867,854480.6673,429798.8117,E316899,6/11/2020 9:42,E316899,3/23/2023 15:23,3bab7c37-dbff-45e3-91f0-6e2cb1595487,-8949939.148,2939111.393,
358,3.03122E+12,6031,Brownsville Middle, ,4899 NW 24th Ave, ,Miami-Dade,33142,305-633-1481,,M,8-Jun,1365,504,C,25.81955,-80.23555,907639.0625,540838.1252,E316899,6/11/2020 9:42,E316899,3/24/2023 12:47,09c59cfb-d02a-49cb-a40b-91dfec3ec0d3,-8931780.321,2976749.685,
359,3.04005E+12,6121,Ruben Dario Middle, ,350 NW 97th Ave, ,Miami-Dade,33172,305-226-0179,,M,8-Jun,802,573,C,25.77154,-80.35436,868638.616,523178.3934,E316899,6/11/2020 9:42,E316899,4/3/2023 15:25,d180c7cb-b147-4398-9bac-60af679042ee,-8945006.725,2970813.549,
360,4.2131E+11,4261,Palm Springs Elementary, ,6304 E 1st Ave, ,Hialeah,33013,305-822-0911,,E,PK-5,868,594,N,25.88001,-80.28103,892555.915,562726.47,E316899,6/11/2020 9:42,E316899,4/3/2023 14:41,b4df481e-c5e5-4d66-a77d-23c83b92c859,-8936843.632,2984227.551,
361,3.53029E+12,9411,ITS Annex Warehouse, ,2740 NW 104th Ct, ,Doral,33172,305-995-3331,,A,0,0,0, ,25.79895,-80.36641,864625.3749,533118.9999,E316899,6/11/2020 9:42,E316899,4/3/2023 11:42,7c2aeb29-82b9-4203-8055-30a268c91c12,-8946348.033,2974201.357,
362,1.3114E+11,7411,Miami Northwestern Senior High, ,1100 NW 71st St, ,Miami,33150,305-836-0991,,S,12-Sep,2309,1419,C,25.83898,-80.21392,914712.3259,547940.0329,E316899,6/11/2020 9:42,E316899,4/3/2023 13:05,7c3ae2f4-ab10-4761-8a85-4090d289ee1e,-8929372.526,2979151.938,
363,3.03103E+12,7601,William H. Turner Technical Arts High School, ,10151 NW 19th Ave, ,Miami-Dade,33147,305-691-8324,,S,12-Sep,1847,1175,C,25.86717,-80.2293,909595.416,558157.0142,E316899,6/11/2020 9:42,E316899,4/5/2023 12:00,52e40aac-a7aa-49f9-813b-0c206de227a3,-8931083.969,2982639.294,
364,8.2121E+11,4121,Dr. Robert  B. Ingram Elementary, ,600 Ahmad St, ,Opa-Locka,33054,305-688-4605,,E,PK-5,558,310,N,25.90445,-80.24784,903417.7083,571669.8336,E316899,6/11/2020 9:42,E316899,3/24/2023 14:25,08e4d5b8-add8-4a52-a138-ec40ad6dc4ab,-8933148.991,2987251.445,
365,3.42104E+12,461,Brentwood Elementary, ,3101 NW 191st St, ,Miami Gardens,33056,305-624-2657,,E,PK-5,874,446,N,25.94839,-80.25273,901719.8121,587634.563,E316899,6/11/2020 9:42,E316899,3/24/2023 12:42,b9ae19f5-ab44-497c-9b61-ad6bc096fd1b,-8933693.106,2992691.222,
366,6.2126E+11,2041,Benjamin Franklin K-8 Center, ,13100 NW 12th Ave, ,North Miami,33168,305-681-3547,,E,PK-8,722,551,C,25.89506,-80.22012,912553.6883,568313.625,E316899,6/11/2020 9:42,E316899,3/24/2023 12:31,4e940741-a7d1-49e2-a1aa-f6a8b6d5d46d,-8930062.128,2986090.649,
367,3.04032E+12,5421,Sunset Park Elementary, ,10235 SW 84th St, ,Miami-Dade,33173,305-279-3222,,E,PK-5,646,417,S,25.69141,-80.358,867583.4974,494047.7297,E316899,6/11/2020 9:42,E316899,4/4/2023 15:40,d215ec16-8dd4-4ff6-a5b4-48a3dc0756d1,-8945411.556,2960911.268,
368,3.06934E+12,771,William A. Chapman Elementary, ,27190 SW 140th Ave, ,Miami-Dade,33032,305-245-1055,,E,PK-5,620,560,S,25.51498,-80.41716,848381.4497,429834.6599,E316899,6/11/2020 9:42,E316899,4/5/2023 11:59,85d4e185-862e-4f3a-a6c4-09bc59e27a4d,-8951997.771,2939132.774,
369,2.3234E+11,761,Miami Beach Fienberg/Fisher K-8 Center, ,1420 Washington Ave, ,Miami Beach,33139,305-531-0419,,E,PK-8,896,848,N,25.78619,-80.13233,941674.5039,528922.5378,E316899,6/11/2020 9:42,E316899,4/3/2023 12:53,24d27418-047a-46cd-b7de-28a2e649c60a,-8920290.227,2972624.522,
370,3.0601E+12,6081,Cutler Bay Senior High, ,8601 SW 212th St, ,Cutler Bay,33189,305-235-1581,,M,12-Sep,1331,571,S,25.5711,-80.33048,876868.3238,450365.1994,E316899,6/11/2020 9:42,E316899,3/24/2023 13:16,0a346290-bde7-4d6d-ba94-09c3d33f9fd9,-8942347.714,2946056.5,
371,1.3219E+11,7081,Design & Architecture Senior High, ,4001 NE 2nd Ave, ,Miami,33137,305-573-7135,,S,12-Sep,404,481,C,25.81349,-80.19075,922392.6369,538720.6117,E316899,6/11/2020 9:42,E316899,3/24/2023 14:05,51046628-5630-4f3b-8ba6-80b63337509d,-8926792.475,2975999.253,
372,1.3123E+11,81,Lenora B. Smith Elementary, ,4700 NW 12th Ave, ,Miami,33127,305-635-0873,,E,PK-5,754,367,C,25.81883,-80.21695,913758.5577,540609.349,E316899,6/11/2020 9:42,E316899,4/3/2023 12:33,ed9dbb7b-afbc-482a-bf47-b175b13d7433,-8929710.084,2976659.603,
